ADDRESS,city,state,Metro,zip,price,sq ft,acreage,pricesqft,list-card-label,list-card-variable-text,walkscore,description,LATITUDE,LONGITUDE,bike_score,transit_score
Bayfield Ave,Arverne,NY,New York,11692,360000,8481.0,0.1946969697,42.44782455,sqft lot,Sold 08/06/2018,44,Car-Dependent,40.599041,-73.799969,45,63
3045 23rd,Astoria,NY,New York,11102,825000,2000.0,0.04591368228,412.5,sqft lot,Sold 10/29/2020,97,Walker's Paradise,40.768025,-73.927269,80,83
18-11 21 Drive,Astoria,NY,New York,11105,3000000,3025.0,0.06944444444,991.7355372,sqft lot,Sold 01/16/2019,75,Very Walkable,40.782982,-73.918476,71,68
18-15 21 Drive,Astoria,NY,New York,11105,3000000,2888.0,0.06629935721,1038.781163,sqft lot,Sold 01/16/2019,75,Very Walkable,40.782897,-73.91841,71,68
10297 E Mississippi Ave,Aurora,CO,Denver,80247,300000,40510.8,0.93,7.405432625,acres lot,Sold 10/08/2020,61,Somewhat Walkable,39.697108,-104.869217,73,42
1571 201st St,Bayside,NY,New York,11360,863000,4730.0,0.1085858586,182.4524313,sqft lot,Sold 02/21/2019,62,Somewhat Walkable,40.784455,-73.792578,52,53
28-43 214th Street #LOT,Bayside,NY,New York,11361,570000,4500.0,0.1033057851,126.6666667,sqft lot,Sold 02/09/2019,74,Very Walkable,40.77607,-73.774072,54,55
214-43 39th,Bayside,NY,New York,11361,5400000,27442.8,0.63,196.772924,acres lot,Sold 02/19/2019,94,Walker's Paradise,40.765984,-73.769358,50,67
2828 Beverly Glen Blvd,Bel Air,CA,Los Angeles,90077,9900,2506.0,0.05752984389,3.950518755,sqft lot,Sold 10/07/2018,53,Somewhat Walkable,34.1253,-118.4455,19,0
Rial,Bel Air,CA,Los Angeles,90077,10000,2550.0,0.0585399449,3.921568627,sqft lot,Sold 01/09/2019,7,Car-Dependent,34.1021,-118.4521,10,0
Beverly Glen Blvd,Bel Air,CA,Los Angeles,90077,24500,15681.6,0.36,1.562340577,acres lot,Sold 04/01/2019,14,Car-Dependent,34.092221,-118.438116,5,31
10 N Hollybush Ln,Bel Air,CA,Los Angeles,90077,60000,15681.6,0.36,3.82614019,acres lot,Sold 07/15/2020,16,Car-Dependent,34.094421,-118.440415,5,21
248-07 87th Dr,Bellerose,NY,New York,11426,370000,4000.0,0.09182736455,92.5,sqft lot,Sold 02/06/2019,84,Very Walkable,40.729385,-73.717216,54,62
8344 242nd St,Bellerose,NY,New York,11426,560000,3998.0,0.09178145087,140.070035,sqft lot,Sold 10/24/2019,70,Somewhat Walkable,40.734332,-73.725037,59,64
3546 W Marginal Way SW,Bellevue,WA,Seattle,98106,4350000,44866.8,1.03,96.95364947,acres lot,Sold 06/28/2019,44,Car-Dependent,47.572237,-122.357583,58,51
1421 Claridge Dr,Beverly Hills,CA,Los Angeles,90210,172500,6899.0,0.158379247,25.00362371,sqft lot,Sold 09/25/2019,1,Car-Dependent,34.096055,-118.420762,1,0
1427 Claridge Dr,Beverly Hills,CA,Los Angeles,90210,172500,6899.0,0.158379247,25.00362371,sqft lot,Sold 09/25/2019,1,Car-Dependent,34.096267,-118.420643,1,0
9836 Portola Dr,Beverly Hills,CA,Los Angeles,90210,330000,7623.0,0.175,43.29004329,sqft lot,Sold 03/03/2020,1,Car-Dependent,34.110008,-118.433059,53,0
2526 Benedict Canyon Dr,Beverly Hills,CA,Los Angeles,90210,700000,25264.8,0.58,27.70653241,acres lot,Sold 05/26/2020,6,Car-Dependent,34.1173,-118.435201,2,0
2232 Benedict Canyon Dr,Beverly Hills,CA,Los Angeles,90210,880000,15246.0,0.35,57.72005772,acres lot,Sold 09/03/2019,4,Car-Dependent,34.110809,-118.435135,1,0
1420 Bella Dr,Beverly Hills,CA,Los Angeles,90210,1500000,84070.8,1.93,17.84210451,acres lot,Sold 04/27/2020,0,Car-Dependent,34.095847,-118.43397,0,0
1312 Beverly Grove Pl,Beverly Hills,CA,Los Angeles,90210,1890000,19166.4,0.44,98.61006762,acres lot,Sold 01/31/2019,1,Car-Dependent,34.095875,-118.425734,0,0
1785 Summitridge Drive,Beverly Hills,CA,Los Angeles,90210,13500000,76665.6,1.76,176.0894065,acres lot,Sold 01/09/2020,0,Car-Dependent,34.102443,-118.420179,0,0
1357 Laurel Way,Beverly Hills,CA,Los Angeles,90210,18000000,22215.6,0.51,810.241452,acres lot,Sold 11/15/2019,3,Car-Dependent,34.096054,-118.41808,2,0
1620 Summitridge Dr,Beverly Hills,CA,Los Angeles,90210,2450000,14810.4,0.34,165.4242964,acres lot,Sold 02/07/2019,0,Car-Dependent,34.099913,-118.42013,0,0
9921 Shangri La Dr,Beverly Hills,CA,Los Angeles,90210,4000000,18730.8,0.43,213.5520106,acres lot,Sold 04/01/2019,0,Car-Dependent,34.0996,-118.426881,0,0
2545 Bowmont Dr,Beverly Hills,CA,Los Angeles,90210,8700000,57499.2,1.32,151.306453,acres lot,Sold 06/08/2020,0,Car-Dependent,34.11568,-118.400666,2,0
9 E 10th Rd,Broad Channel,NY,New York,11693,95000,3371.0,0.07738751148,28.1815485,sqft lot,Sold 08/25/2020,46,Car-Dependent,40.605925,-73.819068,55,79
33 W 12th Rd,Broad Channel,NY,New York,11693,245000,4800.0,0.1101928375,51.04166667,sqft lot,Sold 07/31/2020,47,Car-Dependent,40.604746,-73.821459,55,77
415 E 162nd St,Bronx,NY,New York,10451,750000,2500.0,0.05739210285,300.0,sqft lot,Sold 01/07/2020,93,Walker's Paradise,40.824808,-73.912838,74,100
121-123 E 144th St,Bronx,NY,New York,10451,11600000,12632.4,0.29,918.2736455,acres lot,Sold 04/29/2019,89,Very Walkable,40.81713,-73.929604,75,100
335 Grand Concourse,Bronx,NY,New York,10451,3600000,4937.0,0.1133379247,729.1877658,sqft lot,Sold 06/21/2018,89,Very Walkable,40.815138,-73.929071,75,100
2415 3rd Ave,Bronx,NY,New York,10451,64700000,4400.0,0.101010101,14704.54545,sqft lot,Sold 01/09/2020,88,Very Walkable,40.808554,-73.931111,79,100
2401 3rd Ave,Bronx,NY,New York,10451,87900000,67082.4,1.54,1310.32879,acres lot,Sold 01/14/2020,82,Very Walkable,40.808665,-73.931918,79,100
94 W 169th St,Bronx,NY,New York,10452,355000,4477.0,0.1027777778,79.2941702,sqft lot,Sold 05/21/2018,95,Walker's Paradise,40.839337,-73.92348,55,100
1256 Shakespeare Ave,Bronx,NY,New York,10452,395460,2953.0,0.06779155188,133.9180494,sqft lot,Sold 02/12/2019,95,Walker's Paradise,40.838502,-73.9227,55,100
1033 Summit Ave,Bronx,NY,New York,10452,475000,2186.0,0.05018365473,217.2918573,sqft lot,Sold 10/29/2019,86,Very Walkable,40.834215,-73.929899,52,100
1008 Ogden Ave,Bronx,NY,New York,10452,525000,3179.0,0.07297979798,165.1462724,sqft lot,Sold 09/09/2020,90,Walker's Paradise,40.833095,-73.928896,71,100
976 Woodycrest Ave,Bronx,NY,New York,10452,775000,3750.0,0.08608815427,206.6666667,sqft lot,Sold 05/10/2018,91,Walker's Paradise,40.831907,-73.928223,45,100
978 Woodycrest Ave,Bronx,NY,New York,10452,775000,3750.0,0.08608815427,206.6666667,sqft lot,Sold 05/11/2018,91,Walker's Paradise,40.831997,-73.928153,45,100
1472 Shakespeare Ave,Bronx,NY,New York,10452,990000,6795.0,0.1559917355,145.6953642,sqft lot,Sold 05/31/2018,89,Very Walkable,40.84371,-73.919692,62,100
61 Buchanan Pl,Bronx,NY,New York,10453,20400,2500.0,0.05739210285,8.16,sqft lot,Sold 07/17/2018,92,Walker's Paradise,40.858682,-73.906465,62,100
8 E Clifford Pl,Bronx,NY,New York,10453,150000,2500.0,0.05739210285,60.0,sqft lot,Sold 01/24/2019,93,Walker's Paradise,40.846729,-73.913617,52,100
2026 Walton Ave,Bronx,NY,New York,10453,725000,2500.0,0.05739210285,290.0,sqft lot,Sold 09/10/2018,94,Walker's Paradise,40.852714,-73.906801,68,100
2028 Walton Ave,Bronx,NY,New York,10453,725000,2500.0,0.05739210285,290.0,sqft lot,Sold 09/10/2018,94,Walker's Paradise,40.852806,-73.906702,68,100
1907 Harrison Ave,Bronx,NY,New York,10453,815000,1907.0,0.04377869605,427.3728369,sqft lot,Sold 05/20/2019,93,Walker's Paradise,40.853157,-73.91124,53,100
1665-1675 Jerome Ave,Bronx,NY,New York,10453,3100000,10000.0,0.2295684114,310.0,sqft lot,Sold 09/27/2019,94,Walker's Paradise,40.845693,-73.913972,62,100
725 E 141st St,Bronx,NY,New York,10454,412391,2178.0,0.05,189.3438935,sqft lot,Sold 08/07/2018,85,Very Walkable,40.80705,-73.911075,78,82
E 141st St,Bronx,NY,New York,10454,9520000,35719.2,0.82,266.5233264,acres lot,Sold 09/11/2020,66,Somewhat Walkable,40.806218,-73.906679,66,78
536 Timpson Pl,Bronx,NY,New York,10455,249375,1907.0,0.04377869605,130.7682223,sqft lot,Sold 03/26/2018,90,Walker's Paradise,40.811093,-73.903779,66,96
860-864 E 147th St,Bronx,NY,New York,10455,2350000,7270.0,0.1668962351,323.2462173,sqft lot,Sold 02/12/2018,91,Walker's Paradise,40.810318,-73.904936,66,97
428 E 148th St,Bronx,NY,New York,10455,7500000,2483.0,0.05700183655,3020.53967,sqft lot,Sold 01/08/2020,96,Walker's Paradise,40.81466,-73.917168,79,100
892 Eagle Ave,Bronx,NY,New York,10456,101825,1873.0,0.04299816345,54.36465563,sqft lot,Sold 04/04/2018,91,Walker's Paradise,40.822276,-73.908097,65,100
1270 Boston Rd,Bronx,NY,New York,10456,188376,1500.0,0.03443526171,125.584,sqft lot,Sold 04/19/2019,91,Walker's Paradise,40.830711,-73.900322,74,100
E 161st St,Bronx,NY,New York,10456,405000,2700.0,0.06198347107,150.0,sqft lot,Sold 12/10/2020,93,Walker's Paradise,40.820947,-73.903241,66,100
1114 Washington Ave,Bronx,NY,New York,10456,545000,3060.0,0.07024793388,178.1045752,sqft lot,Sold 07/25/2018,90,Walker's Paradise,40.828827,-73.907902,76,99
510 Weiher Ct,Bronx,NY,New York,10456,782146,426.0,0.009779614325,1836.023474,sqft lot,Sold 04/02/2018,91,Walker's Paradise,40.826095,-73.908589,60,100
Weiher Ct,Bronx,NY,New York,10456,782146,783.0,0.01797520661,998.9093231,sqft lot,Sold 04/02/2018,89,Very Walkable,40.826261,-73.908745,66,100
1306 Findlay Ave,Bronx,NY,New York,10456,1650000,2000.0,0.04591368228,825.0,sqft lot,Sold 09/15/2020,88,Very Walkable,40.835149,-73.910637,71,99
972 Washington Ave,Bronx,NY,New York,10456,3380000,10790.0,0.2477043159,313.253012,sqft lot,Sold 11/20/2019,90,Walker's Paradise,40.825319,-73.909715,72,100
1981 Crotona Ave,Bronx,NY,New York,10457,1000,1672.0,0.03838383838,0.5980861244,sqft lot,Sold 09/24/2020,96,Walker's Paradise,40.84643,-73.890637,72,96
2087 Washington Ave,Bronx,NY,New York,10457,80000,2099.0,0.04818640955,38.11338733,sqft lot,Sold 07/17/2020,91,Walker's Paradise,40.851325,-73.89597,57,98
374 E 173rd St,Bronx,NY,New York,10457,100000,1306.0,0.02998163453,76.56967841,sqft lot,Sold 12/20/2018,89,Very Walkable,40.842983,-73.904144,72,100
2081 Bathgate,Bronx,NY,New York,10457,165000,2352.0,0.05399449036,70.15306122,sqft lot,Sold 07/14/2018,93,Walker's Paradise,40.850899,-73.895189,65,97
Monterey,Bronx,NY,New York,10457,170000,1875.0,0.04304407713,90.66666667,sqft lot,Sold 06/26/2018,95,Walker's Paradise,40.846724,-73.895363,68,99
Monterey Ave,Bronx,NY,New York,10457,170000,1742.0,0.03999081726,97.58897819,sqft lot,Sold 07/03/2018,95,Walker's Paradise,40.846915,-73.895376,68,99
417 E 180th St,Bronx,NY,New York,10457,224015,1769.0,0.04061065197,126.6336914,sqft lot,Sold 02/18/2020,92,Walker's Paradise,40.852264,-73.897237,61,100
2099 Valentine Ave,Bronx,NY,New York,10457,240000,2591.0,0.05948117539,92.62832883,sqft lot,Sold 12/07/2018,94,Walker's Paradise,40.853177,-73.900039,56,100
2018 Belmont Ave,Bronx,NY,New York,10457,262883,2922.0,0.06707988981,89.96680356,sqft lot,Sold 07/16/2018,95,Walker's Paradise,40.84748,-73.890436,71,95
4145 Park Ave,Bronx,NY,New York,10457,370000,1999.0,0.04589072544,185.0925463,sqft lot,Sold 12/10/2018,92,Walker's Paradise,40.846223,-73.900597,75,100
2233 Bathgate Ave,Bronx,NY,New York,10457,450000,2339.0,0.05369605142,192.3899102,sqft lot,Sold 09/18/2019,93,Walker's Paradise,40.853509,-73.893171,57,100
1928 Prospect Ave,Bronx,NY,New York,10457,485000,2374.0,0.05449954086,204.2965459,sqft lot,Sold 09/13/2019,94,Walker's Paradise,40.843518,-73.889433,74,97
1821 Prospect Ave,Bronx,NY,New York,10457,985000,6499.0,0.1491965106,151.5617787,sqft lot,Sold 03/12/2020,91,Walker's Paradise,40.842369,-73.891404,73,98
4387 3rd,Bronx,NY,New York,10457,1350000,41331470.4,948.84,0.03266276246,acres lot,Sold 11/01/2018,93,Walker's Paradise,40.851057,-73.894127,65,97
Dorothea Pl,Bronx,NY,New York,10458,2500,5650.0,0.1297061524,0.4424778761,sqft lot,Sold 09/14/2018,93,Walker's Paradise,40.862584,-73.891607,54,100
446 Cyrus Pl,Bronx,NY,New York,10458,110000,2321.0,0.05328282828,47.39336493,sqft lot,Sold 03/07/2018,95,Walker's Paradise,40.85854,-73.892065,58,100
2407 Cambreleng Ave,Bronx,NY,New York,10458,200000,1742.0,0.03999081726,114.8105626,sqft lot,Sold 05/20/2019,98,Walker's Paradise,40.854882,-73.885422,61,94
2860 Valentine Ave,Bronx,NY,New York,10458,208741,2482.0,0.05697887971,84.10193392,sqft lot,Sold 03/28/2019,93,Walker's Paradise,40.869619,-73.889287,65,100
2851 Bainbridge Ave,Bronx,NY,New York,10458,290000,3485.0,0.08000459137,83.21377331,sqft lot,Sold 07/31/2019,92,Walker's Paradise,40.869014,-73.887808,65,100
2668 Marion Ave,Bronx,NY,New York,10458,295859,7840.0,0.1799816345,37.73711735,sqft lot,Sold 09/10/2020,92,Walker's Paradise,40.864788,-73.890108,51,100
2862 Valentine Ave,Bronx,NY,New York,10458,300000,2475.0,0.05681818182,121.2121212,sqft lot,Sold 11/04/2020,92,Walker's Paradise,40.869659,-73.889216,65,100
695 E 183rd St,Bronx,NY,New York,10458,375000,1999.0,0.04589072544,187.5937969,sqft lot,Sold 11/22/2019,97,Walker's Paradise,40.852238,-73.88566,62,90
360 E 184th St,Bronx,NY,New York,10458,460000,2491.0,0.05718549128,184.6647933,sqft lot,Sold 10/09/2020,95,Walker's Paradise,40.85773,-73.895825,42,100
2648 Bainbridge Ave,Bronx,NY,New York,10458,480000,2273.0,0.05218089991,211.174659,sqft lot,Sold 07/22/2020,95,Walker's Paradise,40.864759,-73.891792,52,100
2470 Arthur Ave,Bronx,NY,New York,10458,519000,1337.0,0.0306932966,388.1824981,sqft lot,Sold 06/26/2019,97,Walker's Paradise,40.85699,-73.886023,59,96
2383 Bathgate Ave,Bronx,NY,New York,10458,519308,2500.0,0.05739210285,207.7232,sqft lot,Sold 10/23/2018,97,Walker's Paradise,40.856611,-73.890425,56,100
361 E 194th St,Bronx,NY,New York,10458,720000,3898.0,0.08948576676,184.7101077,sqft lot,Sold 12/07/2018,92,Walker's Paradise,40.863869,-73.890412,51,100
2711 Decatur Ave,Bronx,NY,New York,10458,754000,3179.0,0.07297979798,237.1815036,sqft lot,Sold 07/30/2020,93,Walker's Paradise,40.865318,-73.888715,48,100
882 Home St,Bronx,NY,New York,10459,105000,1300.0,0.02984389348,80.76923077,sqft lot,Sold 04/17/2019,91,Walker's Paradise,40.827968,-73.896133,75,100
810 E 169th St,Bronx,NY,New York,10459,126000,1764.0,0.04049586777,71.42857143,sqft lot,Sold 10/05/2018,92,Walker's Paradise,40.82965,-73.898492,69,100
968 Rogers Pl,Bronx,NY,New York,10459,315000,1981.0,0.0454775023,159.0106007,sqft lot,Sold 07/16/2019,93,Walker's Paradise,40.823089,-73.89758,77,100
810 E 165th St,Bronx,NY,New York,10459,375000,1999.0,0.04589072544,187.5937969,sqft lot,Sold 05/17/2019,93,Walker's Paradise,40.824172,-73.90111,69,100
1100 Westchester Ave,Bronx,NY,New York,10459,400000,1306.0,0.02998163453,306.2787136,sqft lot,Sold 10/18/2018,94,Walker's Paradise,40.825219,-73.890418,82,100
947 Westchester Ave,Bronx,NY,New York,10459,400000,1476.0,0.03388429752,271.00271,sqft lot,Sold 07/15/2020,95,Walker's Paradise,40.822429,-73.896589,79,100
1147 Vyse Ave,Bronx,NY,New York,10459,437500,1999.0,0.04589072544,218.8594297,sqft lot,Sold 02/24/2020,92,Walker's Paradise,40.827635,-73.890234,82,100
1167 Vyse Ave,Bronx,NY,New York,10459,437500,2000.0,0.04591368228,218.75,sqft lot,Sold 02/21/2020,89,Very Walkable,40.828186,-73.890227,81,100
947 Freeman St,Bronx,NY,New York,10459,475000,2674.0,0.0613865932,177.6364996,sqft lot,Sold 11/09/2018,87,Very Walkable,40.830344,-73.890271,79,100
845 Southern Blvd,Bronx,NY,New York,10459,485000,3001.0,0.06889348026,161.6127957,sqft lot,Sold 01/02/2019,97,Walker's Paradise,40.817866,-73.895091,76,100
1165 Hoe Ave,Bronx,NY,New York,10459,630000,2500.0,0.05739210285,252.0,sqft lot,Sold 03/25/2020,90,Very Walkable,40.827895,-73.891171,77,100
1230 Prospect Ave,Bronx,NY,New York,10459,1200000,2904.0,0.06666666667,413.2231405,sqft lot,Sold 10/17/2019,90,Walker's Paradise,40.827431,-73.89809,71,100
1784 Merrill St,Bronx,NY,New York,10460,50000,1481.0,0.03399908173,33.76097232,sqft lot,Sold 04/11/2019,92,Walker's Paradise,40.836616,-73.867966,43,100
1760 E Tremont Ave,Bronx,NY,New York,10460,150000,2265.0,0.05199724518,66.22516556,sqft lot,Sold 08/27/2019,87,Very Walkable,40.839424,-73.869055,62,100
1713 Taylor Ave,Bronx,NY,New York,10460,177000,2375.0,0.0545224977,74.52631579,sqft lot,Sold 08/02/2019,84,Very Walkable,40.842273,-73.869286,72,95
633 Mead St,Bronx,NY,New York,10460,215000,25264.8,0.58,8.509863526,acres lot,Sold 11/12/2019,92,Walker's Paradise,40.842739,-73.866585,65,92
1159 E Tremont Ave,Bronx,NY,New York,10460,375000,1080.0,0.02479338843,347.2222222,sqft lot,Sold 05/15/2018,79,Very Walkable,40.840041,-73.875083,72,100
1827 Waterloo Pl,Bronx,NY,New York,10460,500000,2360.0,0.05417814509,211.8644068,sqft lot,Sold 06/24/2020,90,Very Walkable,40.840491,-73.88775,59,99
Mohegan Ave,Bronx,NY,New York,10460,649058,2711.0,0.06223599633,239.4164515,sqft lot,Sold 12/05/2019,89,Very Walkable,40.84059,-73.888287,67,99
1369 Leland Ave,Bronx,NY,New York,10460,800000,7165.0,0.1644857668,111.653873,sqft lot,Sold 02/21/2020,96,Walker's Paradise,40.834851,-73.86428,38,100
915 Elsmere Pl,Bronx,NY,New York,10460,2900000,49222.8,1.13,58.91578699,acres lot,Sold 07/09/2020,92,Walker's Paradise,40.841668,-73.884795,74,97
Daly Ave,Bronx,NY,New York,10460,4310000,1110.0,0.02548209366,3882.882883,sqft lot,Sold 02/09/2018,90,Walker's Paradise,40.840767,-73.88454,79,100
1159 Crosby Ave,Bronx,NY,New York,10461,150000,2652.0,0.0608815427,56.56108597,sqft lot,Sold 02/09/2018,90,Very Walkable,40.835375,-73.827378,53,74
2913 Lasalle Ave,Bronx,NY,New York,10461,165000,2500.0,0.05739210285,66.0,sqft lot,Sold 11/25/2020,90,Very Walkable,40.839215,-73.830943,70,84
2865 Coddington Ave,Bronx,NY,New York,10461,225000,3009.0,0.06907713499,74.77567298,sqft lot,Sold 01/16/2020,90,Walker's Paradise,40.839302,-73.833091,76,85
1149 Pierce Ave,Bronx,NY,New York,10461,350000,2961.0,0.06797520661,118.2033097,sqft lot,Sold 08/06/2019,87,Very Walkable,40.847449,-73.848725,69,84
1604 Williamsbridge Rd,Bronx,NY,New York,10461,350000,3978.0,0.09132231405,87.98391151,sqft lot,Sold 08/06/2019,90,Walker's Paradise,40.847335,-73.848962,71,84
1680 Stillwell Ave,Bronx,NY,New York,10461,850000,8001.0,0.183677686,106.2367204,sqft lot,Sold 07/10/2018,67,Somewhat Walkable,40.855931,-73.839277,92,83
1960 Bogart Ave,Bronx,NY,New York,10462,200000,1089.0,0.025,183.6547291,sqft lot,Sold 05/22/2018,88,Very Walkable,40.851008,-73.860406,69,91
2069 Bogartave,Bronx,NY,New York,10462,220000,6973.0,0.1600780533,31.55026531,sqft lot,Sold 04/19/2018,93,Walker's Paradise,40.853468,-73.861299,71,90
2071 Bogart,Bronx,NY,New York,10462,350000,4000.0,0.09182736455,87.5,sqft lot,Sold 02/28/2020,93,Walker's Paradise,40.853369,-73.861357,71,90
2107 Matthews Ave,Bronx,NY,New York,10462,445000,2500.0,0.05739210285,178.0,sqft lot,Sold 02/05/2020,95,Walker's Paradise,40.85375,-73.863237,80,92
3828 Orloff Ave,Bronx,NY,New York,10463,50000,2178.0,0.05,22.95684114,sqft lot,Sold 02/22/2019,91,Walker's Paradise,40.883076,-73.896637,54,100
3904 Orloff Ave,Bronx,NY,New York,10463,265000,3214.0,0.07378328742,82.45177349,sqft lot,Sold 09/08/2020,88,Very Walkable,40.884007,-73.894775,53,99
56 Marble Hill Ave,Bronx,NY,New York,10463,450000,3275.0,0.07518365473,137.4045802,sqft lot,Sold 07/19/2019,96,Walker's Paradise,40.875657,-73.909406,51,92
2662 Kingsbridge Ter,Bronx,NY,New York,10463,600000,4133.0,0.09488062443,145.1729978,sqft lot,Sold 06/05/2019,89,Very Walkable,40.870087,-73.905096,38,100
2658 Kingsbridge Ter,Bronx,NY,New York,10463,650000,4264.0,0.09788797062,152.4390244,sqft lot,Sold 06/05/2019,89,Very Walkable,40.869937,-73.905181,38,100
3188 Riverdale Ave,Bronx,NY,New York,10463,8100000,1292.0,0.02966023875,6269.349845,sqft lot,Sold 06/06/2018,96,Walker's Paradise,40.88231,-73.90834,40,89
115 Rochelle St,Bronx,NY,New York,10464,435000,5000.0,0.1147842057,87.0,sqft lot,Sold 02/03/2020,50,Car-Dependent,40.838918,-73.784248,40,37
110 Schofield St,Bronx,NY,New York,10464,550000,9861.0,0.2263774105,55.77527634,sqft lot,Sold 03/23/2020,76,Very Walkable,40.844831,-73.785968,46,37
81 Carroll St,Bronx,NY,New York,10464,560000,10890.0,0.25,51.42332415,acres lot,Sold 08/15/2019,75,Very Walkable,40.845702,-73.787437,44,37
81 Carol,Bronx,NY,New York,10464,565000,0.0,0.0,,sqft lot,Sold 07/16/2019,75,Very Walkable,40.845694,-73.787444,44,37
Shore Dr,Bronx,NY,New York,10464,950000,16117.2,0.37,58.94324076,acres lot,Sold 06/30/2020,22,Car-Dependent,40.88348,-73.794548,26,25
Chaffee Ave,Bronx,NY,New York,10465,45000,8000.0,0.1836547291,5.625,sqft lot,Sold 06/11/2019,50,Somewhat Walkable,40.814839,-73.807548,44,48
Longstreet Ave,Bronx,NY,New York,10465,45000,18295.2,0.42,2.459661551,acres lot,Sold 06/12/2019,42,Car-Dependent,40.819908,-73.806613,39,48
721 Clarence Ave,Bronx,NY,New York,10465,200000,2500.0,0.05739210285,80.0,sqft lot,Sold 08/10/2018,75,Very Walkable,40.83003,-73.815785,50,55
Shore Dr,Bronx,NY,New York,10465,350000,5000.0,0.1147842057,70.0,sqft lot,Sold 02/19/2020,42,Car-Dependent,40.820339,-73.806129,39,47
3236 Schley Ave,Bronx,NY,New York,10465,400000,67953.6,1.56,5.886369523,acres lot,Sold 04/08/2020,59,Somewhat Walkable,40.827557,-73.813137,46,51
834 Hollywood Ave,Bronx,NY,New York,10465,640000,2000.0,0.04591368228,320.0,sqft lot,Sold 11/09/2020,87,Very Walkable,40.830341,-73.821328,50,59
222 Longstreet Ave,Bronx,NY,New York,10465,800000,2500.0,0.05739210285,320.0,sqft lot,Sold 11/17/2018,42,Car-Dependent,40.81956,-73.80613,39,48
3705 Rombouts Ave,Bronx,NY,New York,10466,42766,4791.0,0.1099862259,8.926320184,sqft lot,Sold 12/20/2018,84,Very Walkable,40.886701,-73.830443,57,73
2083 Bussing Ave,Bronx,NY,New York,10466,60000,2426.0,0.0556932966,24.73206925,sqft lot,Sold 10/15/2018,64,Somewhat Walkable,40.896268,-73.841942,57,73
2074 Edenwald Ave,Bronx,NY,New York,10466,75000,2500.0,0.05739210285,30.0,sqft lot,Sold 09/14/2020,69,Somewhat Walkable,40.893292,-73.840802,52,72
4136 Boyd Ave,Bronx,NY,New York,10466,90000,2374.0,0.05449954086,37.91069924,sqft lot,Sold 08/28/2019,80,Very Walkable,40.892723,-73.849996,59,84
967 E 226th St,Bronx,NY,New York,10466,100000,2735.0,0.06278696051,36.5630713,sqft lot,Sold 05/08/2020,76,Very Walkable,40.886178,-73.851967,82,83
E 221st St,Bronx,NY,New York,10466,105000,2857.0,0.06558769513,36.75183759,sqft lot,Sold 03/06/2019,85,Very Walkable,40.884529,-73.860576,78,90
4151 Gunther Ave,Bronx,NY,New York,10466,120000,2500.0,0.05739210285,48.0,sqft lot,Sold 08/27/2019,80,Very Walkable,40.893125,-73.849776,59,84
3925 Provost Ave,Bronx,NY,New York,10466,165000,2500.0,0.05739210285,66.0,sqft lot,Sold 11/17/2020,75,Very Walkable,40.889631,-73.827994,49,72
3643 Palmer Ave,Bronx,NY,New York,10466,300000,5022.0,0.1152892562,59.73715651,sqft lot,Sold 10/15/2020,77,Very Walkable,40.88424,-73.838465,62,78
Mulvey Ave,Bronx,NY,New York,10466,300000,4732.0,0.1086317723,63.39814032,sqft lot,Sold 03/05/2020,75,Very Walkable,40.890531,-73.828423,49,72
713 E 235th St,Bronx,NY,New York,10466,490000,12196.8,0.28,40.17447199,acres lot,Sold 05/26/2020,90,Very Walkable,40.894859,-73.855811,54,90
Conner St,Bronx,NY,New York,10466,501800,4466.0,0.1025252525,112.3600537,sqft lot,Sold 10/31/2019,86,Very Walkable,40.886211,-73.828747,53,79
1065 E 232nd St,Bronx,NY,New York,10466,580000,3184.0,0.07309458219,182.160804,sqft lot,Sold 10/19/2018,84,Very Walkable,40.889459,-73.846726,70,77
4114-4116 Boyd Ave,Bronx,NY,New York,10466,679965,3554.0,0.08158861341,191.3238604,sqft lot,Sold 02/19/2020,83,Very Walkable,40.892143,-73.849774,65,83
4212 Digney Ave,Bronx,NY,New York,10466,700000,6730.0,0.1544995409,104.0118871,sqft lot,Sold 10/05/2018,82,Very Walkable,40.893904,-73.851388,51,87
4631 Murdock Ave,Bronx,NY,New York,10466,875000,3023.0,0.06939853076,289.4475686,sqft lot,Sold 12/24/2020,75,Very Walkable,40.903882,-73.845544,48,84
773 E 233rd St,Bronx,NY,New York,10466,7000000,29620.8,0.68,236.3204235,acres lot,Sold 12/26/2018,88,Very Walkable,40.892763,-73.854632,56,89
2241 White Plains Rd,Bronx,NY,New York,10467,150000,8553.0,0.1963498623,17.53770607,sqft lot,Sold 08/16/2018,92,Walker's Paradise,40.858789,-73.868059,77,94
722 E 218th St,Bronx,NY,New York,10467,197000,3049.0,0.06999540863,64.61134798,sqft lot,Sold 05/07/2018,87,Very Walkable,40.882355,-73.862334,76,95
716 E 221st St,Bronx,NY,New York,10467,350000,6873.0,0.1577823691,50.92390514,sqft lot,Sold 01/31/2020,88,Very Walkable,40.884609,-73.861611,70,92
3052 Hull Ave,Bronx,NY,New York,10467,404000,2949.0,0.06769972452,136.9955917,sqft lot,Sold 10/23/2020,95,Walker's Paradise,40.871519,-73.879264,76,100
3750 Barnes Ave,Bronx,NY,New York,10467,425000,6002.0,0.1377869605,70.80973009,sqft lot,Sold 01/18/2019,85,Very Walkable,40.88201,-73.859992,72,91
3101 Webster Ave,Bronx,NY,New York,10467,495000,2874.0,0.06597796143,172.2338205,sqft lot,Sold 08/29/2019,92,Walker's Paradise,40.871148,-73.877377,74,100
94-100 E 208th St,Bronx,NY,New York,10467,520000,2500.0,0.05739210285,208.0,sqft lot,Sold 05/21/2018,92,Walker's Paradise,40.878284,-73.88187,70,100
3565 Dekalb Ave,Bronx,NY,New York,10467,605000,1089000.0,25.0,0.5555555556,acres lot,Sold 11/30/2020,90,Walker's Paradise,40.884005,-73.879381,61,98
3307 Cruger Ave,Bronx,NY,New York,10467,690000,1672.0,0.03838383838,412.6794258,sqft lot,Sold 12/17/2018,90,Very Walkable,40.873815,-73.86641,83,98
767 E 218th St,Bronx,NY,New York,10467,840000,2857.0,0.06558769513,294.0147007,sqft lot,Sold 08/28/2019,85,Very Walkable,40.882318,-73.860692,72,91
722 E 216th St,Bronx,NY,New York,10467,1400000,5636.0,0.1293847567,248.4031228,sqft lot,Sold 01/07/2019,86,Very Walkable,40.880804,-73.863164,75,95
3099 Webster Ave,Bronx,NY,New York,10467,1980000,3001.0,0.06889348026,659.7800733,sqft lot,Sold 08/29/2019,92,Walker's Paradise,40.871111,-73.877492,74,100
3300 Webster Ave,Bronx,NY,New York,10467,2000000,11325.6,0.26,176.5910857,acres lot,Sold 11/14/2019,89,Very Walkable,40.875764,-73.872496,57,100
114 E 198th St,Bronx,NY,New York,10468,610000,2448.0,0.05619834711,249.1830065,sqft lot,Sold 12/13/2019,93,Walker's Paradise,40.870246,-73.891586,69,100
2769 Creston Ave,Bronx,NY,New York,10468,975000,3358.0,0.07708907254,290.3513996,sqft lot,Sold 06/26/2019,93,Walker's Paradise,40.869931,-73.893085,68,100
3168 Villa Ave,Bronx,NY,New York,10468,1260000,5000.0,0.1147842057,252.0,sqft lot,Sold 05/27/2020,90,Walker's Paradise,40.876164,-73.886761,74,100
2499 Sedgwick Ave,Bronx,NY,New York,10468,2770000,4948.0,0.11359045,559.8221504,sqft lot,Sold 06/21/2019,76,Very Walkable,40.866048,-73.908305,33,100
3231 Colden Ave,Bronx,NY,New York,10469,96734,2500.0,0.05739210285,38.6936,sqft lot,Sold 03/25/2020,81,Very Walkable,40.872303,-73.859678,78,90
1517 Adee Ave,Bronx,NY,New York,10469,100000,2374.0,0.05449954086,42.12299916,sqft lot,Sold 09/08/2020,82,Very Walkable,40.869881,-73.841982,50,84
2539 Hone Ave,Bronx,NY,New York,10469,138000,2500.0,0.05739210285,55.2,sqft lot,Sold 08/16/2018,91,Walker's Paradise,40.864279,-73.858059,70,84
Givan Ave,Bronx,NY,New York,10469,230000,4500.0,0.1033057851,51.11111111,sqft lot,Sold 07/16/2018,76,Very Walkable,40.876458,-73.838898,58,83
3026 Kingsland Ave,Bronx,NY,New York,10469,250000,2008.0,0.04609733701,124.501992,sqft lot,Sold 05/18/2020,79,Very Walkable,40.870783,-73.840796,47,84
3409 Edson Ave,Bronx,NY,New York,10469,340000,9900.0,0.2272727273,34.34343434,sqft lot,Sold 12/04/2019,80,Very Walkable,40.87897,-73.838859,53,82
2517 Wilson Ave,Bronx,NY,New York,10469,350000,5000.0,0.1147842057,70.0,sqft lot,Sold 01/24/2020,81,Very Walkable,40.863541,-73.849478,59,81
2945 Tenbroeck Ave,Bronx,NY,New York,10469,450000,5000.0,0.1147842057,90.0,sqft lot,Sold 07/02/2019,75,Very Walkable,40.868998,-73.853062,58,81
2790 Sexton Pl,Bronx,NY,New York,10469,497000,5998.0,0.1376951331,82.86095365,sqft lot,Sold 01/08/2020,83,Very Walkable,40.869252,-73.8471,58,81
2310 Williamsbridge Rd,Bronx,NY,New York,10469,718000,3484.0,0.07998163453,206.0849598,sqft lot,Sold 06/05/2019,86,Very Walkable,40.860138,-73.857122,78,88
1429-1431  East Gun Hill,Bronx,NY,New York,10469,800000,6000.0,0.1377410468,133.3333333,sqft lot,Sold 01/24/2020,87,Very Walkable,40.869415,-73.844231,58,83
2919 Hone Ave,Bronx,NY,New York,10469,800000,8400.0,0.1928374656,95.23809524,sqft lot,Sold 08/10/2018,88,Very Walkable,40.868438,-73.857875,74,85
3144 Mickle Ave,Bronx,NY,New York,10469,901151,8454.0,0.194077135,106.5946298,sqft lot,Sold 11/19/2020,81,Very Walkable,40.872952,-73.842832,46,82
4819 Murdock Ave,Bronx,NY,New York,10470,60000,2613.0,0.0599862259,22.96211251,sqft lot,Sold 07/15/2020,76,Very Walkable,40.905427,-73.845785,55,84
662 E 240th St,Bronx,NY,New York,10470,70000,5000.0,0.1147842057,14.0,sqft lot,Sold 06/06/2019,82,Very Walkable,40.902448,-73.852953,58,89
704 E 241st St,Bronx,NY,New York,10470,150000,4775.0,0.1096189164,31.41361257,sqft lot,Sold 10/10/2018,82,Very Walkable,40.902429,-73.850575,58,89
6691 Broadway,Bronx,NY,New York,10471,375000,2847.0,0.06535812672,131.7175975,sqft lot,Sold 12/03/2018,79,Very Walkable,40.911007,-73.896804,37,68
Broadway,Bronx,NY,New York,10471,375000,2847.0,0.06535812672,131.7175975,sqft lot,Sold 12/11/2018,79,Very Walkable,40.910934,-73.897067,37,68
1675 Westchester Ave,Bronx,NY,New York,10472,1,37026.0,0.85,2.7e-05,acres lot,Sold 02/28/2018,94,Walker's Paradise,40.83055,-73.87246,57,90
1210 Leland Ave,Bronx,NY,New York,10472,96330,2500.0,0.05739210285,38.532,sqft lot,Sold 12/10/2018,94,Walker's Paradise,40.830732,-73.862939,51,92
1347 Commonwealth Ave,Bronx,NY,New York,10472,450000,4356.0,0.1,103.3057851,sqft lot,Sold 04/26/2019,92,Walker's Paradise,40.834325,-73.869135,54,100
1026 Leland Ave,Bronx,NY,New York,10472,520000,5401.0,0.123989899,96.27846695,sqft lot,Sold 10/07/2020,89,Very Walkable,40.826815,-73.862031,49,89
1965 Chatterton Ave,Bronx,NY,New York,10472,750000,2574.0,0.05909090909,291.3752914,sqft lot,Sold 08/01/2018,89,Very Walkable,40.827551,-73.857673,58,88
1215 Saint Lawrence Ave,Bronx,NY,New York,10472,785000,2482.0,0.05697887971,316.2771958,sqft lot,Sold 05/16/2019,93,Walker's Paradise,40.830223,-73.867226,49,91
1424 Harding Park,Bronx,NY,New York,10473,480000,1263.0,0.02899449036,380.0475059,sqft lot,Sold 01/13/2020,51,Somewhat Walkable,40.808607,-73.857511,58,59
519 Bolton Ave,Bronx,NY,New York,10473,500000,2500.0,0.05739210285,200.0,sqft lot,Sold 08/17/2018,75,Very Walkable,40.816174,-73.858223,71,64
525 Bolton Ave,Bronx,NY,New York,10473,500000,2378.0,0.05459136823,210.2607233,sqft lot,Sold 08/17/2018,75,Very Walkable,40.816307,-73.858319,71,64
525 Bolton Ave #A,Bronx,NY,New York,10473,500000,1624.0,0.03728191001,307.8817734,sqft lot,Sold 08/17/2018,75,Very Walkable,40.816307,-73.858319,71,64
557 Taylor Ave,Bronx,NY,New York,10473,890000,3484.0,0.07998163453,255.4535017,sqft lot,Sold 07/26/2018,79,Very Walkable,40.816622,-73.862147,63,62
215 Soundview Ave,Bronx,NY,New York,10473,5250000,64468.8,1.48,81.43474053,acres lot,Sold 08/28/2018,58,Somewhat Walkable,40.810434,-73.856136,70,61
311 Coster St,Bronx,NY,New York,10474,337500,5000.0,0.1147842057,67.5,sqft lot,Sold 08/14/2019,75,Very Walkable,40.807104,-73.885785,64,50
647 Manida St,Bronx,NY,New York,10474,575000,2500.0,0.05739210285,230.0,sqft lot,Sold 01/08/2020,85,Very Walkable,40.813273,-73.888359,63,88
883 Bryant Ave #885,Bronx,NY,New York,10474,640000,5000.0,0.1147842057,128.0,sqft lot,Sold 07/29/2020,92,Walker's Paradise,40.819391,-73.887095,68,100
1122 Longwood Ave,Bronx,NY,New York,10474,900000,3325.0,0.07633149679,270.6766917,sqft lot,Sold 01/22/2019,94,Walker's Paradise,40.814367,-73.893482,72,97
425 Manida St,Bronx,NY,New York,10474,1000000,5000.0,0.1147842057,200.0,sqft lot,Sold 05/13/2019,79,Very Walkable,40.80898,-73.887248,69,68
3303 Rombouts Ave,Bronx,NY,New York,10475,460000,5000.0,0.1147842057,92.0,sqft lot,Sold 10/16/2018,73,Very Walkable,40.880507,-73.828167,49,79
2277 Hollers Ave,Bronx,NY,New York,10475,550000,5000.0,0.1147842057,110.0,sqft lot,Sold 04/16/2018,84,Very Walkable,40.88437,-73.82826,50,79
Landing Rd,Bronx,NY,New York,10475,18000000,227383.2,5.22,79.16152117,acres lot,Sold 01/27/2020,63,Somewhat Walkable,40.867818,-73.909586,38,100
339 Hicks St,Brooklyn,NY,New York,11201,10100000,33541.2,0.77,301.1222019,acres lot,Sold 03/23/2020,97,Walker's Paradise,40.690681,-73.99755,90,100
383 Gold St,Brooklyn,NY,New York,11201,100000000,2655.0,0.06095041322,37664.78343,sqft lot,Sold 07/02/2019,99,Walker's Paradise,40.692826,-73.983199,90,100
67 Duffield St,Brooklyn,NY,New York,11201,60000000,27442.8,0.63,2186.365823,acres lot,Sold 08/03/2018,95,Walker's Paradise,40.696485,-73.983555,91,100
110 E 53rd St,Brooklyn,NY,New York,11203,630000,1999.0,0.04589072544,315.1575788,sqft lot,Sold 03/05/2019,87,Very Walkable,40.657531,-73.928392,59,98
944 Utica Ave,Brooklyn,NY,New York,11203,750000,4000.0,0.09182736455,187.5,sqft lot,Sold 12/18/2018,88,Very Walkable,40.649808,-73.93053,56,73
437 E 45th St,Brooklyn,NY,New York,11203,800000,6000.0,0.1377410468,133.3333333,sqft lot,Sold 11/20/2018,86,Very Walkable,40.651004,-73.93486,53,81
2041 53rd St,Brooklyn,NY,New York,11204,650000,2051.0,0.04708448118,316.9185763,sqft lot,Sold 02/21/2019,88,Very Walkable,40.622669,-73.977292,62,91
1426 W 4th St,Brooklyn,NY,New York,11204,1620000,3920.0,0.08999081726,413.2653061,sqft lot,Sold 10/01/2018,94,Walker's Paradise,40.611357,-73.978646,65,94
5814 18th Ave,Brooklyn,NY,New York,11204,3000000,2362.0,0.05422405877,1270.110076,sqft lot,Sold 05/22/2018,90,Very Walkable,40.622943,-73.986752,56,94
367 Flushing Ave,Brooklyn,NY,New York,11205,200000,2500.0,0.05739210285,80.0,sqft lot,Sold 06/27/2018,94,Walker's Paradise,40.698621,-73.960708,90,84
96 Sandford St #A,Brooklyn,NY,New York,11205,200000,1750.0,0.04017447199,114.2857143,sqft lot,Sold 06/09/2020,94,Walker's Paradise,40.696039,-73.953912,89,93
466 Lafayette,Brooklyn,NY,New York,11205,696500,1667.0,0.03826905418,417.8164367,sqft lot,Sold 09/05/2018,96,Walker's Paradise,40.68905,-73.956516,93,93
594 Myrtle Ave,Brooklyn,NY,New York,11205,1500000,1626.0,0.03732782369,922.5092251,sqft lot,Sold 03/26/2020,98,Walker's Paradise,40.69387,-73.960574,98,90
31 Spencer St,Brooklyn,NY,New York,11205,10500000,10000.0,0.2295684114,1050.0,sqft lot,Sold 07/01/2019,93,Walker's Paradise,40.69803,-73.95559,87,93
733 Myrtle Ave,Brooklyn,NY,New York,11205,12400000,3500.0,0.08034894399,3542.857143,sqft lot,Sold 11/13/2019,95,Walker's Paradise,40.69506,-73.953629,90,93
604 Myrtle Ave,Brooklyn,NY,New York,11205,2350000,2500.0,0.05739210285,940.0,sqft lot,Sold 03/01/2019,98,Walker's Paradise,40.693898,-73.959984,98,90
622 Willoughby Ave,Brooklyn,NY,New York,11206,325000,2000.0,0.04591368228,162.5,sqft lot,Sold 02/08/2018,92,Walker's Paradise,40.694188,-73.94445,86,98
226 Hart St,Brooklyn,NY,New York,11206,645000,2700.0,0.06198347107,238.8888889,sqft lot,Sold 02/14/2019,93,Walker's Paradise,40.693652,-73.942533,86,98
30 Vernon Ave,Brooklyn,NY,New York,11206,1100000,1800.0,0.04132231405,611.1111111,sqft lot,Sold 04/14/2020,94,Walker's Paradise,40.694205,-73.950784,90,93
2-14 Whipple St,Brooklyn,NY,New York,11206,1500000,4167.0,0.09566115702,359.9712023,sqft lot,Sold 04/24/2018,97,Walker's Paradise,40.70045,-73.945702,78,100
21 Ingraham St,Brooklyn,NY,New York,11206,14500000,5000.0,0.1147842057,2900.0,sqft lot,Sold 11/23/2020,97,Walker's Paradise,40.707131,-73.932957,87,97
169 Lorimer St,Brooklyn,NY,New York,11206,3580000,3067.0,0.07040863177,1167.264428,sqft lot,Sold 06/26/2019,96,Walker's Paradise,40.703667,-73.949024,88,100
295 Wallabout St,Brooklyn,NY,New York,11206,4520000,6300.0,0.1446280992,717.4603175,sqft lot,Sold 05/15/2019,94,Walker's Paradise,40.702386,-73.947989,76,100
281 Jerome,Brooklyn,NY,New York,11207,60000,2000.0,0.04591368228,30.0,sqft lot,Sold 12/26/2018,90,Walker's Paradise,40.675073,-73.886913,64,100
483 New Lots Ave,Brooklyn,NY,New York,11207,75000,791.0,0.01815886134,94.81668774,sqft lot,Sold 02/19/2019,88,Very Walkable,40.663318,-73.890135,74,100
684 Jerome St,Brooklyn,NY,New York,11207,125000,2000.0,0.04591368228,62.5,sqft lot,Sold 12/12/2018,86,Very Walkable,40.663782,-73.884066,71,100
2774 Atlantic Ave,Brooklyn,NY,New York,11207,133000,2073.0,0.04758953168,64.15822479,sqft lot,Sold 06/05/2019,89,Very Walkable,40.676061,-73.891785,69,100
111 Sheffield Ave,Brooklyn,NY,New York,11207,136000,2500.0,0.05739210285,54.4,sqft lot,Sold 05/18/2018,91,Walker's Paradise,40.674747,-73.897335,70,100
350 Hendrix St,Brooklyn,NY,New York,11207,200000,2199.0,0.05048209366,90.95043201,sqft lot,Sold 12/09/2020,88,Very Walkable,40.673351,-73.889817,70,100
19 Barbey St,Brooklyn,NY,New York,11207,225000,4645.0,0.1066345271,48.43918192,sqft lot,Sold 03/06/2018,80,Very Walkable,40.682968,-73.89026,51,90
281 New Jersey Ave,Brooklyn,NY,New York,11207,280000,2500.0,0.05739210285,112.0,sqft lot,Sold 11/27/2019,90,Walker's Paradise,40.672764,-73.894766,73,100
202 Sheffield Ave,Brooklyn,NY,New York,11207,299000,2099.0,0.04818640955,142.4487851,sqft lot,Sold 03/23/2020,90,Walker's Paradise,40.672327,-73.897266,70,100
382 Hendrix St,Brooklyn,NY,New York,11207,385000,1762.0,0.04044995409,218.5017026,sqft lot,Sold 08/15/2018,87,Very Walkable,40.672464,-73.889541,73,100
114 Arlington Ave,Brooklyn,NY,New York,11207,395000,5000.0,0.1147842057,79.0,sqft lot,Sold 04/30/2018,91,Walker's Paradise,40.67974,-73.890626,67,97
497 Glenmore Ave,Brooklyn,NY,New York,11207,710000,2500.0,0.05739210285,284.0,sqft lot,Sold 06/25/2018,88,Very Walkable,40.674,-73.891996,71,100
501 Glenmore,Brooklyn,NY,New York,11207,710000,2500.0,0.05739210285,284.0,sqft lot,Sold 06/15/2018,88,Very Walkable,40.673932,-73.891937,71,100
2671 Atlantic Ave,Brooklyn,NY,New York,11207,978737,7718.0,0.1771808999,126.8122571,sqft lot,Sold 10/09/2020,89,Very Walkable,40.6764,-73.895635,67,100
2518 Atlantic Ave,Brooklyn,NY,New York,11207,1500000,9853.0,0.2261937557,152.2378971,sqft lot,Sold 02/11/2019,84,Very Walkable,40.675265,-73.901284,65,100
1474 Blake Ave,Brooklyn,NY,New York,11208,39000,2000.0,0.04591368228,19.5,sqft lot,Sold 11/26/2019,84,Very Walkable,40.672391,-73.861976,52,83
537 Shepherd Ave,Brooklyn,NY,New York,11208,40000,2500.0,0.05739210285,16.0,sqft lot,Sold 03/25/2019,83,Very Walkable,40.671176,-73.879769,75,100
869 Glenmore Ave,Brooklyn,NY,New York,11208,130000,1498.0,0.03438934803,86.7823765,sqft lot,Sold 05/10/2018,89,Very Walkable,40.676049,-73.877981,63,100
141 Fountain Ave,Brooklyn,NY,New York,11208,190000,1999.0,0.04589072544,95.04752376,sqft lot,Sold 12/03/2018,91,Walker's Paradise,40.676767,-73.875441,61,92
210 Berriman St,Brooklyn,NY,New York,11208,200000,1999.0,0.04589072544,100.050025,sqft lot,Sold 05/29/2019,87,Very Walkable,40.673485,-73.879982,67,100
1144 Dumont,Brooklyn,NY,New York,11208,250000,3228.0,0.0741046832,77.44733581,sqft lot,Sold 10/25/2018,84,Very Walkable,40.669121,-73.874293,72,100
457 Lincoln Ave,Brooklyn,NY,New York,11208,250000,2202.0,0.05055096419,113.5331517,sqft lot,Sold 10/07/2020,95,Walker's Paradise,40.678963,-73.867856,55,90
Sutter Ave,Brooklyn,NY,New York,11208,380550,2700.0,0.06198347107,140.9444444,sqft lot,Sold 11/13/2019,88,Very Walkable,40.672701,-73.872418,66,100
680 Cozine Ave,Brooklyn,NY,New York,11208,490000,5401.0,0.123989899,90.72394001,sqft lot,Sold 03/30/2020,69,Somewhat Walkable,40.661879,-73.867975,59,74
136 Glen St,Brooklyn,NY,New York,11208,550000,2500.0,0.05739210285,220.0,sqft lot,Sold 10/25/2018,92,Walker's Paradise,40.680811,-73.870505,60,89
3122 Fulton St,Brooklyn,NY,New York,11208,760000,347.0,0.007966023875,2190.201729,sqft lot,Sold 10/09/2019,91,Walker's Paradise,40.681291,-73.879705,60,87
554-576 Cozine Ave,Brooklyn,NY,New York,11208,25300000,97138.8,2.23,260.4520542,acres lot,Sold 05/11/2018,76,Very Walkable,40.659809,-73.873751,55,90
Milford St,Brooklyn,NY,New York,11208,5600000,22215.6,0.51,252.0751184,acres lot,Sold 10/20/2020,85,Very Walkable,40.674023,-73.876946,63,100
2433 Pitkin Ave,Brooklyn,NY,New York,11208,6250000,5000.0,0.1147842057,1250.0,sqft lot,Sold 11/30/2020,87,Very Walkable,40.674129,-73.882475,66,100
458 87th St,Brooklyn,NY,New York,11209,975000,0.0,0.0,,sqft lot,Sold 10/09/2020,98,Walker's Paradise,40.620946,-74.027312,70,89
9701 3rd Ave,Brooklyn,NY,New York,11209,6000000,7030.0,0.1613865932,853.485064,sqft lot,Sold 02/12/2018,96,Walker's Paradise,40.615496,-74.033984,79,88
2671 Bedford Ave,Brooklyn,NY,New York,11210,760000,7300.0,0.1675849403,104.109589,sqft lot,Sold 03/09/2020,93,Walker's Paradise,40.637484,-73.953436,74,100
1541 New York Ave,Brooklyn,NY,New York,11210,1070000,3000.0,0.06887052342,356.6666667,sqft lot,Sold 11/26/2018,89,Very Walkable,40.635193,-73.94466,55,99
2263 Nostrand Ave,Brooklyn,NY,New York,11210,19000000,29620.8,0.68,641.4411495,acres lot,Sold 04/02/2019,95,Walker's Paradise,40.629666,-73.947053,65,99
220 Broadway,Brooklyn,NY,New York,11211,25000,0.0,0.0,,sqft lot,Sold 09/28/2020,99,Walker's Paradise,40.709309,-73.960974,96,100
383 Manhattan Ave,Brooklyn,NY,New York,11211,1450000,2500.0,0.05739210285,580.0,sqft lot,Sold 03/29/2018,98,Walker's Paradise,40.717558,-73.94688,95,95
359 Bedford Ave,Brooklyn,NY,New York,11211,15000000,9200.0,0.2112029385,1630.434783,sqft lot,Sold 07/30/2019,99,Walker's Paradise,40.71148,-73.962895,97,100
566 Grand St,Brooklyn,NY,New York,11211,2080000,1875.0,0.04304407713,1109.333333,sqft lot,Sold 06/24/2019,99,Walker's Paradise,40.71093,-73.949186,90,100
550 Metropolitan Ave #6,Brooklyn,NY,New York,11211,2850000,3000.0,0.06887052342,950.0,sqft lot,Sold 10/11/2019,99,Walker's Paradise,40.713792,-73.95055,92,100
286 N 8th St,Brooklyn,NY,New York,11211,41400000,5997.0,0.1376721763,6903.451726,sqft lot,Sold 12/19/2019,98,Walker's Paradise,40.715589,-73.953124,93,100
491 Bedford Ave,Brooklyn,NY,New York,11211,7770000,7400.0,0.1698806244,1050.0,sqft lot,Sold 07/23/2019,96,Walker's Paradise,40.706439,-73.963346,96,99
62 Riverdale Ave,Brooklyn,NY,New York,11212,140000,1000.0,0.02295684114,140.0,sqft lot,Sold 07/20/2018,88,Very Walkable,40.659959,-73.914512,72,100
134 Blake Ave,Brooklyn,NY,New York,11212,195000,1398.0,0.03209366391,139.4849785,sqft lot,Sold 03/18/2020,87,Very Walkable,40.664682,-73.914761,77,100
133 Dumont Ave,Brooklyn,NY,New York,11212,220000,1598.0,0.03668503214,137.6720901,sqft lot,Sold 01/10/2020,87,Very Walkable,40.663488,-73.914756,76,100
166 Livonia Ave,Brooklyn,NY,New York,11212,350000,2526.0,0.05798898072,138.5589865,sqft lot,Sold 08/17/2020,87,Very Walkable,40.661839,-73.912125,74,100
195 Herzl St,Brooklyn,NY,New York,11212,360000,2500.0,0.05739210285,144.0,sqft lot,Sold 12/26/2019,86,Very Walkable,40.665371,-73.914207,76,100
456 Blake Ave,Brooklyn,NY,New York,11212,430000,3049.0,0.06999540863,141.0298459,sqft lot,Sold 12/28/2018,88,Very Walkable,40.666487,-73.902332,76,100
117 Osborn St,Brooklyn,NY,New York,11212,1960000,2500.0,0.05739210285,784.0,sqft lot,Sold 01/18/2019,87,Very Walkable,40.669587,-73.908496,77,100
514 Herkimer St,Brooklyn,NY,New York,11213,1800000,5550.0,0.1274104683,324.3243243,sqft lot,Sold 12/09/2019,92,Walker's Paradise,40.678568,-73.936495,80,96
7 Bay 49th St,Brooklyn,NY,New York,11214,450000,7305.0,0.1676997245,61.60164271,sqft lot,Sold 03/15/2019,79,Very Walkable,40.589195,-73.984091,66,99
588 Union St,Brooklyn,NY,New York,11215,345000,2565.0,0.05888429752,134.502924,sqft lot,Sold 11/17/2020,98,Walker's Paradise,40.677737,-73.984546,93,100
379 12th St,Brooklyn,NY,New York,11215,2850000,4367.0,0.1002525253,652.6219373,sqft lot,Sold 10/26/2020,99,Walker's Paradise,40.665796,-73.984014,88,100
334 21st St,Brooklyn,NY,New York,11215,3050000,5008.0,0.1149678604,609.0255591,sqft lot,Sold 03/08/2018,92,Walker's Paradise,40.659187,-73.990296,70,100
Nostrand Ave,Brooklyn,NY,New York,11216,41527,800.0,0.01836547291,51.90875,sqft lot,Sold 07/02/2018,98,Walker's Paradise,40.67386,-73.950123,94,100
322 Clifton Pl,Brooklyn,NY,New York,11216,85969,350.0,0.008034894399,245.6257143,sqft lot,Sold 07/09/2020,95,Walker's Paradise,40.688851,-73.951719,87,90
467 Tompkins Ave,Brooklyn,NY,New York,11216,975000,2008.0,0.04609733701,485.5577689,sqft lot,Sold 01/07/2019,98,Walker's Paradise,40.681456,-73.943238,77,100
336 Quincy St,Brooklyn,NY,New York,11216,1090000,2025.0,0.04648760331,538.2716049,sqft lot,Sold 12/13/2018,92,Walker's Paradise,40.687091,-73.947724,80,100
1510 Fulton St,Brooklyn,NY,New York,11216,1850000,3400.0,0.07805325987,544.1176471,sqft lot,Sold 02/07/2020,98,Walker's Paradise,40.679653,-73.940488,80,100
517 Nostrand Ave,Brooklyn,NY,New York,11216,2400000,1950.0,0.04476584022,1230.769231,sqft lot,Sold 05/02/2018,99,Walker's Paradise,40.6795,-73.949291,82,100
1215 Fulton St,Brooklyn,NY,New York,11216,32500000,37897.2,0.87,857.583146,acres lot,Sold 03/07/2019,98,Walker's Paradise,40.680889,-73.952784,84,100
155 Lincoln Pl,Brooklyn,NY,New York,11217,1000000,1709.0,0.03923324151,585.1375073,sqft lot,Sold 10/16/2020,99,Walker's Paradise,40.67607,-73.974917,90,100
90 4th Ave,Brooklyn,NY,New York,11217,22900000,1573.0,0.03611111111,14558.1691,sqft lot,Sold 07/03/2018,99,Walker's Paradise,40.68173,-73.980512,94,100
716 Ditmas Ave,Brooklyn,NY,New York,11218,450000,2828.0,0.06492194674,159.1230552,sqft lot,Sold 09/17/2019,93,Walker's Paradise,40.636127,-73.970776,87,95
248 Stratford Rd,Brooklyn,NY,New York,11218,1160000,5000.0,0.1147842057,232.0,sqft lot,Sold 03/28/2018,94,Walker's Paradise,40.642602,-73.968763,94,97
13th Ave,Brooklyn,NY,New York,11219,17500000,23958.0,0.55,730.4449453,acres lot,Sold 05/06/2019,95,Walker's Paradise,40.633063,-73.994151,62,83
6404 14th Ave,Brooklyn,NY,New York,11219,2410000,2000.0,0.04591368228,1205.0,sqft lot,Sold 07/06/2018,89,Very Walkable,40.625322,-73.999027,57,90
1050 41st St,Brooklyn,NY,New York,11219,2800000,5000.0,0.1147842057,560.0,sqft lot,Sold 01/17/2020,93,Walker's Paradise,40.642568,-73.992987,73,76
5501-5511 New Utrecht Ave,Brooklyn,NY,New York,11219,3020000,3375.0,0.07747933884,894.8148148,sqft lot,Sold 08/14/2018,94,Walker's Paradise,40.631255,-73.995317,62,85
1023 38th St,Brooklyn,NY,New York,11219,3000000,6300.0,0.1446280992,476.1904762,sqft lot,Sold 07/09/2019,81,Very Walkable,40.644895,-73.991364,72,91
6315 14th Ave,Brooklyn,NY,New York,11219,9650000,21780.0,0.5,443.067034,acres lot,Sold 02/19/2019,90,Walker's Paradise,40.62542,-73.997961,59,90
5102-5108 4th Ave,Brooklyn,NY,New York,11220,1,10017.0,0.2299586777,9.98e-05,sqft lot,Sold 07/18/2018,98,Walker's Paradise,40.645882,-74.013419,74,96
65TH Bond St,Brooklyn,NY,New York,11220,10000,103.0,0.002364554637,97.08737864,sqft lot,Sold 10/01/2019,86,Very Walkable,40.639737,-74.02426,72,96
331 44th St,Brooklyn,NY,New York,11220,1300000,2504.0,0.05748393021,519.1693291,sqft lot,Sold 03/21/2018,95,Walker's Paradise,40.650778,-74.0102,76,99
6647 Sedgwick Pl,Brooklyn,NY,New York,11220,1870000,4000.0,0.09182736455,467.5,sqft lot,Sold 08/20/2019,89,Very Walkable,40.639876,-74.028536,67,92
228 55th St,Brooklyn,NY,New York,11220,2180000,4157.0,0.09543158861,524.4166466,sqft lot,Sold 10/23/2018,93,Walker's Paradise,40.645664,-74.019254,71,95
4525 8th Ave,Brooklyn,NY,New York,11220,28000000,13068.0,0.3,2142.638506,acres lot,Sold 06/28/2018,95,Walker's Paradise,40.643408,-74.000914,73,90
130 Stanhope St,Brooklyn,NY,New York,11221,1,2677.0,0.06145546373,0.0003735524841,sqft lot,Sold 02/19/2019,98,Walker's Paradise,40.69786,-73.92285,94,100
722 Lafayette Ave,Brooklyn,NY,New York,11221,325840,1917.0,0.04400826446,169.9739176,sqft lot,Sold 05/07/2018,89,Very Walkable,40.690463,-73.944235,84,94
1326 Myrtle Ave,Brooklyn,NY,New York,11221,400000,1690.0,0.03879706152,236.6863905,sqft lot,Sold 07/27/2018,98,Walker's Paradise,40.698173,-73.923107,94,100
1390 Putnam Ave,Brooklyn,NY,New York,11221,435006,2500.0,0.05739210285,174.0024,sqft lot,Sold 06/25/2020,94,Walker's Paradise,40.69474,-73.911874,89,100
483 Hart St,Brooklyn,NY,New York,11221,460000,1498.0,0.03438934803,307.0761015,sqft lot,Sold 02/24/2020,97,Walker's Paradise,40.695453,-73.931637,79,97
236 Palmetto St,Brooklyn,NY,New York,11221,498942,1698.0,0.03898071625,293.8409894,sqft lot,Sold 06/13/2019,94,Walker's Paradise,40.695293,-73.914845,91,100
1311 Myrtle Ave,Brooklyn,NY,New York,11221,580000,1070.0,0.02456382002,542.0560748,sqft lot,Sold 07/09/2018,98,Walker's Paradise,40.698243,-73.924999,95,100
1033 Jefferson Ave,Brooklyn,NY,New York,11221,600000,2000.0,0.04591368228,300.0,sqft lot,Sold 06/10/2019,95,Walker's Paradise,40.687391,-73.917456,76,98
1038 Jefferson Ave,Brooklyn,NY,New York,11221,600000,1800.0,0.04132231405,333.3333333,sqft lot,Sold 06/10/2019,95,Walker's Paradise,40.687211,-73.916917,76,98
1205 Broadway,Brooklyn,NY,New York,11221,1250000,1800.0,0.04132231405,694.4444444,sqft lot,Sold 12/10/2019,96,Walker's Paradise,40.69234,-73.926538,76,96
1112 Dekalb Ave,Brooklyn,NY,New York,11221,2650000,2500.0,0.05739210285,1060.0,sqft lot,Sold 04/16/2019,97,Walker's Paradise,40.69361,-73.929917,77,96
94 Kingsland,Brooklyn,NY,New York,11222,825000,2500.0,0.05739210285,330.0,sqft lot,Sold 08/01/2018,94,Walker's Paradise,40.719622,-73.940345,82,85
2624 W 13th St,Brooklyn,NY,New York,11223,430000,2000.0,0.04591368228,215.0,sqft lot,Sold 01/14/2019,59,Somewhat Walkable,40.584181,-73.982155,63,100
2317 W 12th St,Brooklyn,NY,New York,11223,504034,3049.0,0.06999540863,165.3112496,sqft lot,Sold 04/25/2019,86,Very Walkable,40.590932,-73.981912,69,100
492-500 Kings Hwy,Brooklyn,NY,New York,11223,1700000,5250.0,0.120523416,323.8095238,sqft lot,Sold 07/09/2019,93,Walker's Paradise,40.604056,-73.971449,72,92
2521 Coney Island Ave,Brooklyn,NY,New York,11223,2000000,23086.8,0.53,86.6295892,acres lot,Sold 03/20/2019,97,Walker's Paradise,40.595503,-73.960503,72,86
398 Kings Hwy,Brooklyn,NY,New York,11223,9500000,11761.2,0.27,807.7407067,acres lot,Sold 02/07/2019,94,Walker's Paradise,40.604304,-73.97527,70,97
2847 W 37th St,Brooklyn,NY,New York,11224,140000,2374.0,0.05449954086,58.97219882,sqft lot,Sold 07/13/2020,57,Somewhat Walkable,40.575753,-74.002684,51,48
3749 Neptune Ave,Brooklyn,NY,New York,11224,175700,3000.0,0.06887052342,58.56666667,sqft lot,Sold 12/10/2018,50,Somewhat Walkable,40.576901,-74.005098,47,47
2804 Mermaid Ave,Brooklyn,NY,New York,11224,410000,1983.0,0.04552341598,206.7574382,sqft lot,Sold 11/18/2020,73,Very Walkable,40.57531,-73.994481,56,54
2900 Mermaid Ave #6,Brooklyn,NY,New York,11224,592394,2036.0,0.04674012856,290.959725,sqft lot,Sold 04/19/2018,88,Very Walkable,40.576814,-73.981793,70,100
1425 Hart Pl,Brooklyn,NY,New York,11224,600000,2435.0,0.05589990817,246.4065708,sqft lot,Sold 04/01/2019,80,Very Walkable,40.582732,-73.983701,70,100
5010 Ocean View Ave,Brooklyn,NY,New York,11224,775000,9840.0,0.2258953168,78.7601626,sqft lot,Sold 09/11/2019,14,Car-Dependent,40.579507,-74.011299,31,44
2710 W 16th St,Brooklyn,NY,New York,11224,1210000,4750.0,0.1090449954,254.7368421,sqft lot,Sold 06/08/2020,85,Very Walkable,40.580594,-73.984765,72,100
2706 W 16th St,Brooklyn,NY,New York,11224,1200000,5503.0,0.1263314968,218.0628748,sqft lot,Sold 07/27/2018,85,Very Walkable,40.580698,-73.984819,72,100
2926 W 19th St,Brooklyn,NY,New York,11224,5000000,89298.0,2.05,55.99229546,acres lot,Sold 07/13/2018,86,Very Walkable,40.575781,-73.985981,67,100
3065 Cropsey Ave,Brooklyn,NY,New York,11224,6550000,2000.0,0.04591368228,3275.0,sqft lot,Sold 10/23/2019,85,Very Walkable,40.580622,-73.985246,72,100
517-519 Brooklyn,Brooklyn,NY,New York,11225,900000,3000.0,0.06887052342,300.0,sqft lot,Sold 07/30/2018,94,Walker's Paradise,40.662071,-73.945394,79,100
617 E 21st St,Brooklyn,NY,New York,11226,1600000,6220.0,0.1427915519,257.2347267,sqft lot,Sold 03/28/2018,90,Very Walkable,40.638957,-73.957553,83,100
7207 13th Ave,Brooklyn,NY,New York,11228,650000,966.0,0.02217630854,672.8778468,sqft lot,Sold 06/05/2018,91,Walker's Paradise,40.621658,-74.005611,56,85
203 Dahlgren Pl,Brooklyn,NY,New York,11228,910000,5662.0,0.1299816345,160.7205934,sqft lot,Sold 11/19/2020,87,Very Walkable,40.614886,-74.026053,65,89
145 Bay 11th St,Brooklyn,NY,New York,11228,2060000,4356.0,0.1,472.9109275,sqft lot,Sold 01/21/2020,86,Very Walkable,40.607512,-74.010831,69,69
Garland Ct,Brooklyn,NY,New York,11229,12500,1785.0,0.04097796143,7.00280112,sqft lot,Sold 08/09/2018,78,Very Walkable,40.594996,-73.932163,62,62
Avenue X,Brooklyn,NY,New York,11229,80000,3250.0,0.0746097337,24.61538462,sqft lot,Sold 10/24/2018,78,Very Walkable,40.594798,-73.932522,62,62
Fane Ct,Brooklyn,NY,New York,11229,105000,1785.0,0.04097796143,58.82352941,sqft lot,Sold 05/08/2018,60,Somewhat Walkable,40.592121,-73.928325,61,59
2037 E 23rd St,Brooklyn,NY,New York,11229,150000,3001.0,0.06889348026,49.98333889,sqft lot,Sold 01/28/2019,95,Walker's Paradise,40.601048,-73.948484,68,85
1803 East 16th Steeet,Brooklyn,NY,New York,11229,540000,1800.0,0.04132231405,300.0,sqft lot,Sold 03/22/2019,81,Very Walkable,40.605743,-73.956612,59,91
42 Dare Ct,Brooklyn,NY,New York,11229,675000,900.0,0.02066115702,750.0,sqft lot,Sold 07/30/2019,50,Somewhat Walkable,40.587979,-73.921822,66,51
2633 Ocean Ave,Brooklyn,NY,New York,11229,4500000,10500.0,0.241046832,428.5714286,sqft lot,Sold 05/31/2018,94,Walker's Paradise,40.597067,-73.950595,65,81
1253 E 7th St,Brooklyn,NY,New York,11230,44500,1205.0,0.02766299357,36.92946058,sqft lot,Sold 07/11/2019,86,Very Walkable,40.620456,-73.968037,82,88
733 Ocean Pkwy,Brooklyn,NY,New York,11230,6000000,2900.0,0.0665748393,2068.965517,sqft lot,Sold 08/13/2018,91,Walker's Paradise,40.630743,-73.971136,84,89
Hamilton Ave,Brooklyn,NY,New York,11231,150152,5200.0,0.1193755739,28.87538462,sqft lot,Sold 08/04/2020,93,Walker's Paradise,40.674702,-74.000598,95,97
Union St,Brooklyn,NY,New York,11231,345000,24829.2,0.57,13.89493016,acres lot,Sold 11/13/2018,99,Walker's Paradise,40.682676,-73.996871,98,100
100 Sullivan St,Brooklyn,NY,New York,11231,418000,1000.0,0.02295684114,418.0,sqft lot,Sold 09/16/2019,89,Very Walkable,40.678182,-74.012481,93,57
92 King St,Brooklyn,NY,New York,11231,500000,1875.0,0.04304407713,266.6666667,sqft lot,Sold 02/20/2020,92,Walker's Paradise,40.677641,-74.010207,95,67
59 Garnet St,Brooklyn,NY,New York,11231,650000,1340.0,0.03076216713,485.0746269,sqft lot,Sold 12/10/2018,95,Walker's Paradise,40.674296,-73.998136,95,100
44 Van Dyke St,Brooklyn,NY,New York,11231,700000,2500.0,0.05739210285,280.0,sqft lot,Sold 01/22/2020,85,Very Walkable,40.674111,-74.011996,100,64
302 Van Brunt St,Brooklyn,NY,New York,11231,850000,1091.0,0.02504591368,779.1017415,sqft lot,Sold 04/17/2018,89,Very Walkable,40.679456,-74.01076,93,63
404 Van Brunt St,Brooklyn,NY,New York,11231,1000000,2250.0,0.05165289256,444.4444444,sqft lot,Sold 03/05/2019,88,Very Walkable,40.676493,-74.014289,94,52
45 Garnet St,Brooklyn,NY,New York,11231,2850000,5000.0,0.1147842057,570.0,sqft lot,Sold 05/28/2020,95,Walker's Paradise,40.674495,-73.998667,95,100
211 Richards St,Brooklyn,NY,New York,11231,3000000,2000.0,0.04591368228,1500.0,sqft lot,Sold 10/18/2019,88,Very Walkable,40.674815,-74.012809,100,59
153 Van Dyke St,Brooklyn,NY,New York,11231,3600000,2000.0,0.04591368228,1800.0,sqft lot,Sold 10/12/2018,85,Very Walkable,40.675963,-74.015574,92,50
640 Columbia St,Brooklyn,NY,New York,11231,47500000,175982.4,4.04,269.913355,acres lot,Sold 02/20/2018,70,Somewhat Walkable,40.671002,-74.009485,99,70
41 Bay St,Brooklyn,NY,New York,11231,53500000,54450.0,1.25,982.5528007,acres lot,Sold 01/17/2020,48,Car-Dependent,40.58868,-73.99716,51,74
50TH Bond St,Brooklyn,NY,New York,11232,360000,401.0,0.009205693297,897.755611,sqft lot,Sold 04/29/2020,90,Walker's Paradise,40.649749,-74.018021,79,91
213 26th,Brooklyn,NY,New York,11232,500000,1375.0,0.03156565657,363.6363636,sqft lot,Sold 03/08/2019,92,Walker's Paradise,40.65961,-73.997769,70,100
186 30th St,Brooklyn,NY,New York,11232,1140000,2504.0,0.05748393021,455.2715655,sqft lot,Sold 01/07/2019,93,Walker's Paradise,40.657035,-74.000336,72,100
4913-4923 2nd Ave,Brooklyn,NY,New York,11232,5800000,10017.0,0.2299586777,579.0156734,sqft lot,Sold 08/15/2019,95,Walker's Paradise,40.649113,-74.016502,79,94
23 Prescott Pl,Brooklyn,NY,New York,11233,3,1440.0,0.03305785124,0.002083333333,sqft lot,Sold 04/05/2018,85,Very Walkable,40.677309,-73.920653,64,100
146 Macdougal St,Brooklyn,NY,New York,11233,150000,2500.0,0.05739210285,60.0,sqft lot,Sold 07/06/2018,85,Very Walkable,40.679586,-73.914977,56,100
1966 Atlantic Avenue,Brooklyn,NY,New York,11233,237000,1000.0,0.02295684114,237.0,sqft lot,Sold 06/23/2018,88,Very Walkable,40.676709,-73.923052,67,97
1905 Atlantic Ave,Brooklyn,NY,New York,11233,280000,1200.0,0.02754820937,233.3333333,sqft lot,Sold 06/26/2018,87,Very Walkable,40.67718,-73.921209,64,99
832 Halsey St,Brooklyn,NY,New York,11233,366978,1742.0,0.03999081726,210.6647532,sqft lot,Sold 08/01/2019,95,Walker's Paradise,40.684911,-73.92085,67,100
244 Saratoga Ave,Brooklyn,NY,New York,11233,480000,1014.0,0.02327823691,473.3727811,sqft lot,Sold 08/11/2020,82,Very Walkable,40.677497,-73.916608,66,100
151 Somers St,Brooklyn,NY,New York,11233,495000,2600.0,0.05968778696,190.3846154,sqft lot,Sold 08/29/2019,85,Very Walkable,40.679501,-73.906684,54,100
221 Mother Gaston Blvd,Brooklyn,NY,New York,11233,700334,6300.0,0.1446280992,111.164127,sqft lot,Sold 12/26/2018,81,Very Walkable,40.673938,-73.908063,75,100
2349 Dean St,Brooklyn,NY,New York,11233,835000,2679.0,0.06150137741,311.683464,sqft lot,Sold 06/19/2018,81,Very Walkable,40.674929,-73.909802,71,100
15 Somers St,Brooklyn,NY,New York,11233,3250000,9350.0,0.2146464646,347.5935829,sqft lot,Sold 09/18/2019,84,Very Walkable,40.678798,-73.912873,62,100
4511 Avenue N,Brooklyn,NY,New York,11234,350000,2000.0,0.04591368228,175.0,sqft lot,Sold 05/20/2019,93,Walker's Paradise,40.61892,-73.931286,54,81
4515 Avenue N,Brooklyn,NY,New York,11234,350000,2000.0,0.04591368228,175.0,sqft lot,Sold 05/21/2019,93,Walker's Paradise,40.618925,-73.931211,53,81
2224 E 74th St,Brooklyn,NY,New York,11234,850000,5998.0,0.1376951331,141.7139046,sqft lot,Sold 05/23/2018,55,Somewhat Walkable,40.618962,-73.903174,52,67
1372 69th Street,Brooklyn,NY,New York,11234,1500000,14374.8,0.33,104.3492779,acres lot,Sold 11/30/2018,84,Very Walkable,40.622188,-73.912893,52,72
23 Stanton Rd,Brooklyn,NY,New York,11235,242577,2542.0,0.05835629017,95.42761605,sqft lot,Sold 06/04/2018,78,Very Walkable,40.585405,-73.936711,65,67
8 Brighton 4th Pl,Brooklyn,NY,New York,11235,250000,1800.0,0.04132231405,138.8888889,sqft lot,Sold 08/13/2018,97,Walker's Paradise,40.579653,-73.963567,76,90
19 Lake Ave,Brooklyn,NY,New York,11235,253950,3000.0,0.06887052342,84.65,sqft lot,Sold 02/20/2019,83,Very Walkable,40.585062,-73.93861,62,69
12 Lake Ave,Brooklyn,NY,New York,11235,260538,1200.0,0.02754820937,217.115,sqft lot,Sold 07/22/2019,83,Very Walkable,40.584944,-73.938215,62,69
12 Brighton 10th Ln,Brooklyn,NY,New York,11235,360000,1620.0,0.03719008264,222.2222222,sqft lot,Sold 11/20/2019,95,Walker's Paradise,40.580418,-73.958922,64,84
2672 E 11th St,Brooklyn,NY,New York,11235,600000,3001.0,0.06889348026,199.9333555,sqft lot,Sold 06/14/2019,93,Walker's Paradise,40.58564,-73.959501,68,84
3038 Brighton 8th St,Brooklyn,NY,New York,11235,620000,5000.0,0.1147842057,124.0,sqft lot,Sold 03/05/2020,97,Walker's Paradise,40.578979,-73.960619,66,86
1614 Shore Blvd,Brooklyn,NY,New York,11235,1500000,3000.0,0.06887052342,500.0,sqft lot,Sold 12/04/2018,39,Car-Dependent,40.580607,-73.938465,53,67
2644-2646 E 18th St,Brooklyn,NY,New York,11235,1500000,2850.0,0.06542699725,526.3157895,sqft lot,Sold 05/15/2019,97,Walker's Paradise,40.587113,-73.951558,61,83
2648 E 18th St,Brooklyn,NY,New York,11235,1600000,2850.0,0.06542699725,561.4035088,sqft lot,Sold 05/14/2019,97,Walker's Paradise,40.587035,-73.951543,61,83
3029 Emmons Ave,Brooklyn,NY,New York,11235,2450000,1865.0,0.04281450872,1313.672922,sqft lot,Sold 02/27/2018,77,Very Walkable,40.584158,-73.937992,66,69
1780 Sheepshead Bay Rd,Brooklyn,NY,New York,11235,6300000,2620.0,0.06014692378,2404.580153,sqft lot,Sold 02/20/2019,95,Walker's Paradise,40.584226,-73.95111,58,83
1050 E 95th St,Brooklyn,NY,New York,11236,8014,2500.0,0.05739210285,3.2056,sqft lot,Sold 03/06/2018,86,Very Walkable,40.64446,-73.90482,51,91
6 Matthews Pl #A,Brooklyn,NY,New York,11236,17000,997.0,0.02288797062,17.05115346,sqft lot,Sold 04/23/2019,79,Very Walkable,40.633735,-73.896687,51,68
929 E 84th St,Brooklyn,NY,New York,11236,95000,1999.0,0.04589072544,47.52376188,sqft lot,Sold 09/29/2020,76,Very Walkable,40.636946,-73.909489,55,79
926 E 99th St,Brooklyn,NY,New York,11236,100000,2000.0,0.04591368228,50.0,sqft lot,Sold 12/21/2018,82,Very Walkable,40.64404,-73.898684,50,92
8712 Ditmas Ave,Brooklyn,NY,New York,11236,2100000,4000.0,0.09182736455,525.0,sqft lot,Sold 09/10/2019,82,Very Walkable,40.646694,-73.916424,54,81
400 Linden St,Brooklyn,NY,New York,11237,1170000,2000.0,0.04591368228,585.0,sqft lot,Sold 07/08/2019,99,Walker's Paradise,40.70082,-73.911743,86,100
25 Stewart Ave,Brooklyn,NY,New York,11237,14300000,42253.2,0.97,338.4359054,acres lot,Sold 04/04/2019,94,Walker's Paradise,40.707054,-73.925693,88,92
1005 Dean St,Brooklyn,NY,New York,11238,20000,500.0,0.01147842057,40.0,sqft lot,Sold 12/11/2020,96,Walker's Paradise,40.678072,-73.95678,95,100
1031 Fulton St #1033,Brooklyn,NY,New York,11238,520000,985.0,0.02261248852,527.9187817,sqft lot,Sold 04/10/2018,98,Walker's Paradise,40.682387,-73.960766,87,100
385 Classon Ave,Brooklyn,NY,New York,11238,1500000,2957.0,0.06788337925,507.2708827,sqft lot,Sold 04/17/2019,95,Walker's Paradise,40.687899,-73.959513,91,100
800 Dean St,Brooklyn,NY,New York,11238,1910000,4006.0,0.0919651056,476.7848228,sqft lot,Sold 05/20/2020,99,Walker's Paradise,40.679004,-73.963499,95,100
258 Saint James Pl,Brooklyn,NY,New York,11238,2750000,2500.0,0.05739210285,1100.0,sqft lot,Sold 03/13/2018,98,Walker's Paradise,40.682532,-73.963911,90,100
Park Pl,Brooklyn,NY,New York,11238,2900000,1195.0,0.02743342516,2426.778243,sqft lot,Sold 04/13/2018,98,Walker's Paradise,40.674997,-73.960666,95,100
1059 Atlantic Ave,Brooklyn,NY,New York,11238,6600000,1679.0,0.03854453627,3930.911257,sqft lot,Sold 02/04/2020,98,Walker's Paradise,40.679731,-73.956479,78,100
133 Kent Ave,Brooklyn,NY,New York,11249,28400000,2500.0,0.05739210285,11360.0,sqft lot,Sold 01/09/2020,99,Walker's Paradise,40.719716,-73.961999,91,96
1 Broadway,Brooklyn,NY,New York,11249,9110000,0.0,0.0,,sqft lot,Sold 10/18/2018,96,Walker's Paradise,40.710936,-73.968312,91,96
6904 Eton Ave,Canoga Park,CA,Los Angeles,91303,1700000,11325.6,0.26,150.1024228,acres lot,Sold 12/03/2019,71,Very Walkable,34.195765,-118.5951,89,57
8309 Hillcroft Dr,Canoga Park,CA,Los Angeles,91304,58000,6878.0,0.1578971534,8.43268392,sqft lot,Sold 03/01/2019,16,Car-Dependent,34.22374,-118.651151,8,0
8545 Hayvenhurst Ave,Castaic,CA,Los Angeles,91343,75000,437342.4,10.04,0.1714903472,acres lot,Sold 08/06/2019,55,Somewhat Walkable,34.2262,-118.494283,45,38
22406 N Summit Ridge Cir,Chatsworth,CA,Los Angeles,91311,100000,30492.0,0.7,3.279548734,acres lot,Sold 10/23/2018,14,Car-Dependent,34.241476,-118.615335,5,28
22570 S Summit Ridge Cir,Chatsworth,CA,Los Angeles,91311,200000,76230.0,1.75,2.623638987,acres lot,Sold 08/10/2020,2,Car-Dependent,34.23952,-118.619764,1,0
10801 Topanga Canyon Blvd,Chatsworth,CA,Los Angeles,91311,1080000,80586.0,1.85,13.40183158,acres lot,Sold 02/06/2020,35,Car-Dependent,34.265824,-118.606644,41,31
22571 Summit Ridge Cir,Chatsworth,CA,Los Angeles,91311,820000,66211.2,1.52,12.38461167,acres lot,Sold 03/03/2020,4,Car-Dependent,34.24068,-118.619057,1,24
431 S Dearborn St,Chicago,IL,Chicago,60605,321000,1282.0,0.02943067034,250.3900156,sqft lot,Sold 08/04/2020,98,Walker's Paradise,41.875902,-87.62889,85,100
Fox Path,Chicago,IL,Chicago,60605,378000,88862.4,2.04,4.253767623,acres lot,Sold 04/21/2020,85,Very Walkable,41.865977,-87.621251,93,92
1021 W Polk St,Chicago,IL,Chicago,60607,1020000,2613.0,0.0599862259,390.3559127,sqft lot,Sold 03/31/2020,78,Very Walkable,41.871632,-87.652123,94,75
226 S Green St,Chicago,IL,Chicago,60607,1820000,0.0,0.0,,sqft lot,Sold 12/17/2020,95,Walker's Paradise,41.878889,-87.648445,87,89
1050 W Monroe St,Chicago,IL,Chicago,60607,25800000,3450.0,0.07920110193,7478.26087,sqft lot,Sold 03/10/2020,92,Walker's Paradise,41.880526,-87.653339,93,82
27 N Aberdeen St,Chicago,IL,Chicago,60607,25800000,2887.0,0.06627640037,8936.6124,sqft lot,Sold 03/10/2020,97,Walker's Paradise,41.882469,-87.654116,92,80
33 S Aberdeen St,Chicago,IL,Chicago,60607,25800000,5175.0,0.1188016529,4985.507246,sqft lot,Sold 03/10/2020,92,Walker's Paradise,41.880638,-87.65441,93,82
230 N Peoria St,Chicago,IL,Chicago,60607,86500000,2869.0,0.06586317723,30149.87801,sqft lot,Sold 05/22/2020,99,Walker's Paradise,41.886546,-87.650133,93,83
232 N Peoria St,Chicago,IL,Chicago,60607,86500000,2500.0,0.05739210285,34600.0,sqft lot,Sold 05/22/2020,99,Walker's Paradise,41.886619,-87.650141,93,83
2425 W Washburne Ave,Chicago,IL,Chicago,60608,18000,2500.0,0.05739210285,7.2,sqft lot,Sold 09/21/2020,80,Very Walkable,41.865183,-87.687048,85,64
2429 W Washburne Ave,Chicago,IL,Chicago,60608,18000,3064.0,0.07033976125,5.874673629,sqft lot,Sold 09/21/2020,80,Very Walkable,41.86515,-87.68723,85,64
1922 S Washtenaw Ave,Chicago,IL,Chicago,60608,30000,3000.0,0.06887052342,10.0,sqft lot,Sold 07/20/2020,84,Very Walkable,41.854868,-87.69344,77,64
2424 W Roosevelt Rd,Chicago,IL,Chicago,60608,55000,2178.0,0.05,25.25252525,sqft lot,Sold 10/01/2020,82,Very Walkable,41.866899,-87.687093,85,66
2725 W Roosevelt Rd,Chicago,IL,Chicago,60608,90000,5740.0,0.1317722681,15.67944251,sqft lot,Sold 01/22/2020,69,Somewhat Walkable,41.866223,-87.69442,77,65
2430 W 25th St,Chicago,IL,Chicago,60608,127000,2613.0,0.0599862259,48.60313816,sqft lot,Sold 11/03/2020,84,Very Walkable,41.846829,-87.68685,58,61
3341 S Seeley Ave,Chicago,IL,Chicago,60608,136000,3000.0,0.06887052342,45.33333333,sqft lot,Sold 06/10/2020,83,Very Walkable,41.832849,-87.676223,59,64
2437 W 14th St,Chicago,IL,Chicago,60608,140000,3920.0,0.08999081726,35.71428571,sqft lot,Sold 02/19/2020,76,Very Walkable,41.862403,-87.687518,74,64
2751 W Cermak Rd,Chicago,IL,Chicago,60608,150000,2613.0,0.0599862259,57.40528129,sqft lot,Sold 08/25/2020,89,Very Walkable,41.851637,-87.695006,81,63
1856 W 23rd St,Chicago,IL,Chicago,60608,152500,3049.0,0.06999540863,50.01639882,sqft lot,Sold 08/21/2020,90,Walker's Paradise,41.850895,-87.673155,79,65
2008 S Leavitt St,Chicago,IL,Chicago,60608,170000,2178.0,0.05,78.05325987,sqft lot,Sold 10/12/2020,87,Very Walkable,41.85453,-87.681159,73,66
2211 W Cermak Rd,Chicago,IL,Chicago,60608,185000,2400.0,0.05509641873,77.08333333,sqft lot,Sold 08/04/2020,88,Very Walkable,41.851864,-87.681262,66,64
3239 S Benson St,Chicago,IL,Chicago,60608,225000,0.0,0.0,,sqft lot,Sold 07/30/2020,71,Very Walkable,41.835518,-87.659744,66,58
2355 W 18th Pl,Chicago,IL,Chicago,60608,275000,0.0,0.0,,sqft lot,Sold 12/01/2020,82,Very Walkable,41.856513,-87.68465,71,65
2966 S Archer Ave,Chicago,IL,Chicago,60608,280000,2178.0,0.05,128.5583104,sqft lot,Sold 11/13/2020,78,Very Walkable,41.840845,-87.660202,78,57
3039 S Farrell St,Chicago,IL,Chicago,60608,300000,2700.0,0.06198347107,111.1111111,sqft lot,Sold 10/20/2020,92,Walker's Paradise,41.838718,-87.650938,91,57
3437 S Morgan St,Chicago,IL,Chicago,60608,310500,3588.0,0.08236914601,86.53846154,sqft lot,Sold 11/02/2020,89,Very Walkable,41.831592,-87.650637,81,53
1515 W 18th St,Chicago,IL,Chicago,60608,325000,3100.0,0.07116620753,104.8387097,sqft lot,Sold 07/09/2020,97,Walker's Paradise,41.857564,-87.664344,98,63
3032 S Haynes Ct,Chicago,IL,Chicago,60608,325000,600.0,0.01377410468,541.6666667,sqft lot,Sold 08/14/2020,82,Very Walkable,41.838324,-87.656364,80,59
1712 W Cermak Rd,Chicago,IL,Chicago,60608,478000,3125.0,0.07174012856,152.96,sqft lot,Sold 04/15/2020,92,Walker's Paradise,41.852537,-87.669129,86,64
2814 S Eleanor St,Chicago,IL,Chicago,60608,549000,0.0,0.0,,sqft lot,Sold 11/05/2020,55,Somewhat Walkable,41.843625,-87.663235,73,61
814 W Cullerton St,Chicago,IL,Chicago,60608,574000,22651.2,0.52,25.3408208,acres lot,Sold 09/14/2020,86,Very Walkable,41.855559,-87.64759,93,63
1748 W Cullerton St,Chicago,IL,Chicago,60608,599000,3750.0,0.08608815427,159.7333333,sqft lot,Sold 09/21/2020,94,Walker's Paradise,41.855257,-87.670497,88,66
1016 W 31st St,Chicago,IL,Chicago,60608,690000,12196.8,0.28,56.57221566,acres lot,Sold 12/01/2020,90,Walker's Paradise,41.83819,-87.652897,88,57
1525 W Hastings St,Chicago,IL,Chicago,60608,700000,2613.0,0.0599862259,267.8913127,sqft lot,Sold 02/28/2020,85,Very Walkable,41.863936,-87.664963,85,64
1459 W 16th St,Chicago,IL,Chicago,60608,800000,11761.2,0.27,68.02027004,acres lot,Sold 05/13/2020,96,Walker's Paradise,41.859392,-87.663502,98,63
1734 W Cullerton St,Chicago,IL,Chicago,60608,930000,3000.0,0.06887052342,310.0,sqft lot,Sold 07/31/2020,94,Walker's Paradise,41.855263,-87.669979,88,66
1903 W 17th St,Chicago,IL,Chicago,60608,998000,3125.0,0.07174012856,319.36,sqft lot,Sold 02/25/2020,88,Very Walkable,41.858343,-87.673825,84,66
2337 S Western Ave,Chicago,IL,Chicago,60608,1000000,612.0,0.01404958678,1633.986928,sqft lot,Sold 09/04/2020,86,Very Walkable,41.848915,-87.687495,59,62
4756 S Shields Ave,Chicago,IL,Chicago,60609,4400,2613.0,0.0599862259,1.683888251,sqft lot,Sold 08/19/2020,58,Somewhat Walkable,41.807452,-87.634885,50,71
5013 S Winchester Ave,Chicago,IL,Chicago,60609,6000,2975.0,0.06829660239,2.016806723,sqft lot,Sold 02/18/2020,76,Very Walkable,41.802613,-87.672975,58,63
1329 W 49th Pl,Chicago,IL,Chicago,60609,9000,3000.0,0.06887052342,3.0,sqft lot,Sold 11/09/2020,66,Somewhat Walkable,41.803868,-87.658717,66,59
4411 S Shields Ave,Chicago,IL,Chicago,60609,10000,2875.0,0.06600091827,3.47826087,sqft lot,Sold 07/13/2020,55,Somewhat Walkable,41.814192,-87.63432,58,70
4455 S Wells St,Chicago,IL,Chicago,60609,10000,2613.0,0.0599862259,3.827018752,sqft lot,Sold 03/12/2020,54,Somewhat Walkable,41.813,-87.631923,59,72
4457 S Wells St,Chicago,IL,Chicago,60609,10000,2952.0,0.06776859504,3.387533875,sqft lot,Sold 03/12/2020,54,Somewhat Walkable,41.812934,-87.631921,59,72
4737 S Shields Ave,Chicago,IL,Chicago,60609,15000,3348.0,0.07685950413,4.480286738,sqft lot,Sold 11/16/2020,58,Somewhat Walkable,41.808019,-87.634203,50,71
5211 S Damen Ave,Chicago,IL,Chicago,60609,15000,2901.0,0.06659779614,5.170630817,sqft lot,Sold 07/14/2020,67,Somewhat Walkable,41.799021,-87.674052,60,62
5213 S Damen Ave,Chicago,IL,Chicago,60609,15000,2613.0,0.0599862259,5.740528129,sqft lot,Sold 07/14/2020,67,Somewhat Walkable,41.798952,-87.67405,60,62
5255 S Racine Ave,Chicago,IL,Chicago,60609,16000,3049.0,0.06999540863,5.247622171,sqft lot,Sold 12/22/2020,53,Somewhat Walkable,41.798007,-87.654627,64,58
815 W 49th Pl,Chicago,IL,Chicago,60609,16500,3049.0,0.06999540863,5.411610364,sqft lot,Sold 10/09/2020,62,Somewhat Walkable,41.804039,-87.646112,59,58
5201 S Hermitage Ave,Chicago,IL,Chicago,60609,23500,3125.0,0.07174012856,7.52,sqft lot,Sold 04/13/2020,68,Somewhat Walkable,41.799341,-87.668027,58,60
5203 S Hermitage Ave,Chicago,IL,Chicago,60609,23500,3125.0,0.07174012856,7.52,sqft lot,Sold 04/13/2020,68,Somewhat Walkable,41.799272,-87.668025,58,60
1457 W 47th St,Chicago,IL,Chicago,60609,27000,2613.0,0.0599862259,10.33295063,sqft lot,Sold 11/10/2020,85,Very Walkable,41.808376,-87.662254,66,56
4342 S Marshfield Ave,Chicago,IL,Chicago,60609,31000,3100.0,0.07116620753,10.0,sqft lot,Sold 12/08/2020,80,Very Walkable,41.814555,-87.6667,57,53
543 W 40th Pl,Chicago,IL,Chicago,60609,50000,2988.0,0.06859504132,16.73360107,sqft lot,Sold 10/09/2020,73,Very Walkable,41.820539,-87.640304,61,54
3656 S Ashland Ave #2,Chicago,IL,Chicago,60609,55000,2184.0,0.05013774105,25.18315018,sqft lot,Sold 04/29/2020,69,Somewhat Walkable,41.827098,-87.665845,63,57
521 W Root St,Chicago,IL,Chicago,60609,70000,3150.0,0.07231404959,22.22222222,sqft lot,Sold 08/18/2020,69,Somewhat Walkable,41.818746,-87.639428,59,60
4838 S Ashland Ave,Chicago,IL,Chicago,60609,75000,2825.0,0.06485307622,26.54867257,sqft lot,Sold 11/05/2020,85,Very Walkable,41.80562,-87.66527,61,58
4838-40 S Ashland Ave,Chicago,IL,Chicago,60609,75000,2613.0,0.0599862259,28.70264064,sqft lot,Sold 09/10/2020,85,Very Walkable,41.80562,-87.66527,61,58
4547 S State St,Chicago,IL,Chicago,60609,90000,8049.0,0.1847796143,11.18151323,sqft lot,Sold 11/25/2020,77,Very Walkable,41.811698,-87.625667,67,73
4756 S Loomis Blvd,Chicago,IL,Chicago,60609,100000,2976.0,0.06831955923,33.60215054,sqft lot,Sold 05/28/2020,79,Very Walkable,41.807035,-87.66042,69,56
4828 S May St,Chicago,IL,Chicago,60609,123500,2950.0,0.06772268136,41.86440678,sqft lot,Sold 12/01/2020,64,Somewhat Walkable,41.806075,-87.654319,67,57
3805 S Lowe Ave,Chicago,IL,Chicago,60609,124000,3000.0,0.06887052342,41.33333333,sqft lot,Sold 11/02/2020,76,Very Walkable,41.825145,-87.641962,69,59
3807 S Lowe Ave,Chicago,IL,Chicago,60609,125000,3125.0,0.07174012856,40.0,sqft lot,Sold 11/02/2020,76,Very Walkable,41.825078,-87.641961,69,59
4718 S Throop St,Chicago,IL,Chicago,60609,129000,3000.0,0.06887052342,43.0,sqft lot,Sold 02/20/2020,75,Very Walkable,41.808053,-87.658014,69,57
1027 W 47th Pl,Chicago,IL,Chicago,60609,135000,3001.0,0.06889348026,44.985005,sqft lot,Sold 10/08/2020,67,Somewhat Walkable,41.807606,-87.651424,65,55
4746 S Bishop St,Chicago,IL,Chicago,60609,190000,2976.0,0.06831955923,63.84408602,sqft lot,Sold 11/04/2020,84,Very Walkable,41.80728,-87.66164,68,56
316 W 48th Pl,Chicago,IL,Chicago,60609,210000,3936.0,0.09035812672,53.35365854,sqft lot,Sold 07/30/2020,45,Car-Dependent,41.806332,-87.634066,44,71
3846 S Ashland Ave,Chicago,IL,Chicago,60609,325000,11325.6,0.26,28.69605142,acres lot,Sold 10/08/2020,73,Very Walkable,41.823652,-87.665763,57,54
3854 S Ashland Ave,Chicago,IL,Chicago,60609,325000,1440.0,0.03305785124,225.6944444,sqft lot,Sold 10/08/2020,73,Very Walkable,41.82339,-87.665821,57,54
3856 S Ashland Ave,Chicago,IL,Chicago,60609,325000,568.0,0.01303948577,572.1830986,sqft lot,Sold 10/08/2020,73,Very Walkable,41.823332,-87.665883,57,54
3525 S Parnell Ave,Chicago,IL,Chicago,60609,435000,0.0,0.0,,sqft lot,Sold 04/09/2020,76,Very Walkable,41.829968,-87.639643,71,64
443 W 46th St,Chicago,IL,Chicago,60609,435000,3370.0,0.07736455464,129.0801187,sqft lot,Sold 08/18/2020,60,Somewhat Walkable,41.810576,-87.637623,61,69
4244 S Halsted St,Chicago,IL,Chicago,60609,453000,3150.0,0.07231404959,143.8095238,sqft lot,Sold 11/11/2020,71,Very Walkable,41.816312,-87.645348,59,56
3801 S Honore St,Chicago,IL,Chicago,60609,585000,4321.0,0.09919651056,135.3853275,sqft lot,Sold 02/18/2020,65,Somewhat Walkable,41.824817,-87.671094,63,59
5325 S Ashland Ave,Chicago,IL,Chicago,60609,695000,27878.4,0.64,24.92969467,acres lot,Sold 09/24/2020,61,Somewhat Walkable,41.796866,-87.664277,61,58
5351 S Ashland Ave,Chicago,IL,Chicago,60609,695000,0.0,0.0,,sqft lot,Sold 10/21/2020,56,Somewhat Walkable,41.796217,-87.664259,62,58
4001 S Wells St,Chicago,IL,Chicago,60609,875000,2760.0,0.06336088154,317.0289855,sqft lot,Sold 12/14/2020,56,Somewhat Walkable,41.821701,-87.632169,52,67
4003 S Wells St,Chicago,IL,Chicago,60609,875000,3263.0,0.07490817264,268.1581367,sqft lot,Sold 12/14/2020,56,Somewhat Walkable,41.821629,-87.632166,52,67
4004 S Wells St,Chicago,IL,Chicago,60609,875000,3063.0,0.07031680441,285.6676461,sqft lot,Sold 12/14/2020,59,Somewhat Walkable,41.82155,-87.63287,48,66
4004 S Wentworth Ave,Chicago,IL,Chicago,60609,875000,9727.0,0.2233011938,89.95579315,sqft lot,Sold 12/14/2020,56,Somewhat Walkable,41.821591,-87.631681,52,67
4005 S Wells St,Chicago,IL,Chicago,60609,875000,3263.0,0.07490817264,268.1581367,sqft lot,Sold 12/14/2020,56,Somewhat Walkable,41.821561,-87.632164,52,67
4006 S Wells St,Chicago,IL,Chicago,60609,875000,3063.0,0.07031680441,285.6676461,sqft lot,Sold 12/14/2020,59,Somewhat Walkable,41.821482,-87.632868,48,66
4008 S Wells St,Chicago,IL,Chicago,60609,875000,3063.0,0.07031680441,285.6676461,sqft lot,Sold 12/14/2020,59,Somewhat Walkable,41.821413,-87.632866,48,66
4009 S Wells St,Chicago,IL,Chicago,60609,875000,3263.0,0.07490817264,268.1581367,sqft lot,Sold 12/14/2020,56,Somewhat Walkable,41.821492,-87.632162,52,67
4010 S Wentworth Ave,Chicago,IL,Chicago,60609,875000,3262.0,0.07488521579,268.2403433,sqft lot,Sold 12/14/2020,56,Somewhat Walkable,41.821431,-87.631682,52,67
4011 S Wells St,Chicago,IL,Chicago,60609,875000,3263.0,0.07490817264,268.1581367,sqft lot,Sold 12/14/2020,56,Somewhat Walkable,41.821424,-87.63216,52,67
4500 S Halsted St,Chicago,IL,Chicago,60609,1020000,94960.8,2.18,10.74127429,acres lot,Sold 03/19/2020,72,Very Walkable,41.812994,-87.64638,63,59
3644 S Iron St,Chicago,IL,Chicago,60609,4300000,4147.0,0.0952020202,1036.89414,sqft lot,Sold 10/21/2020,57,Somewhat Walkable,41.827771,-87.66351,60,55
3938 S Racine Ave,Chicago,IL,Chicago,60609,7500000,58806.0,1.35,127.5380063,acres lot,Sold 03/04/2020,31,Car-Dependent,41.820882,-87.657054,39,54
247 W Scott St #P22,Chicago,IL,Chicago,60610,27000,23958.0,0.55,1.126972201,acres lot,Sold 10/13/2020,98,Walker's Paradise,41.904576,-87.636606,86,83
505 N Lake Shore Dr #C-141,Chicago,IL,Chicago,60611,53000,54885.6,1.26,0.965644905,acres lot,Sold 03/06/2020,83,Very Walkable,41.89146,-87.612035,82,77
55 E Erie St #P-366,Chicago,IL,Chicago,60611,990000,26571.6,0.61,37.25782414,acres lot,Sold 02/26/2020,99,Walker's Paradise,41.893897,-87.626053,83,100
1040 N Lake Shore Dr,Chicago,IL,Chicago,60611,2520000,285.0,0.006542699725,8842.105263,sqft lot,Sold 03/30/2020,98,Walker's Paradise,41.902067,-87.624832,83,85
2849 W Monroe St,Chicago,IL,Chicago,60612,10,3049.0,0.06999540863,0.003279763857,sqft lot,Sold 03/09/2020,70,Somewhat Walkable,41.879885,-87.698176,97,74
1115 S Whipple St,Chicago,IL,Chicago,60612,8750,3123.0,0.07169421488,2.801793148,sqft lot,Sold 02/13/2020,76,Very Walkable,41.86776,-87.701695,67,68
1119 S Whipple St,Chicago,IL,Chicago,60612,8750,3123.0,0.07169421488,2.801793148,sqft lot,Sold 02/13/2020,76,Very Walkable,41.867691,-87.701693,67,68
2949 W 5th Ave,Chicago,IL,Chicago,60612,18500,2178.0,0.05,8.494031221,sqft lot,Sold 01/27/2020,73,Very Walkable,41.879695,-87.700359,97,74
2351 W Maypole Ave,Chicago,IL,Chicago,60612,25000,2706.0,0.06212121212,9.238728751,sqft lot,Sold 04/28/2020,89,Very Walkable,41.883612,-87.686004,91,72
2429 W Congress Pkwy,Chicago,IL,Chicago,60612,29000,2914.0,0.06689623508,9.951956074,sqft lot,Sold 12/09/2020,77,Very Walkable,41.874855,-87.687487,81,73
2811 W Jackson Blvd,Chicago,IL,Chicago,60612,40000,3125.0,0.07174012856,12.8,sqft lot,Sold 10/26/2020,71,Very Walkable,41.877145,-87.696712,84,74
2829 W Congress Pkwy,Chicago,IL,Chicago,60612,40000,3484.0,0.07998163453,11.48105626,sqft lot,Sold 02/18/2020,72,Very Walkable,41.874569,-87.697303,73,68
2653 W Adams St,Chicago,IL,Chicago,60612,43500,3049.0,0.06999540863,14.26697278,sqft lot,Sold 07/16/2020,68,Somewhat Walkable,41.878112,-87.693339,86,75
2619 W Jackson Blvd,Chicago,IL,Chicago,60612,45000,2500.0,0.05739210285,18.0,sqft lot,Sold 01/24/2020,57,Somewhat Walkable,41.877252,-87.692085,78,75
527 S Campbell Ave,Chicago,IL,Chicago,60612,45000,1516.0,0.03480257117,29.68337731,sqft lot,Sold 11/13/2020,77,Very Walkable,41.874174,-87.688419,79,70
2737 W Wilcox St,Chicago,IL,Chicago,60612,50000,3250.0,0.0746097337,15.38461538,sqft lot,Sold 02/10/2020,68,Somewhat Walkable,41.878999,-87.695237,91,75
3015 W Lexington St,Chicago,IL,Chicago,60612,50000,3049.0,0.06999540863,16.39881929,sqft lot,Sold 11/30/2020,74,Very Walkable,41.871647,-87.701569,62,69
523 N Troy St #27,Chicago,IL,Chicago,60612,54000,3049.0,0.06999540863,17.71072483,sqft lot,Sold 03/05/2020,76,Very Walkable,41.891083,-87.704801,88,68
2837 W Congress Pkwy,Chicago,IL,Chicago,60612,59000,5227.0,0.1199954086,11.28754544,sqft lot,Sold 12/04/2020,72,Very Walkable,41.874566,-87.697648,73,68
2242 W Adams St,Chicago,IL,Chicago,60612,60000,2550.0,0.0585399449,23.52941176,sqft lot,Sold 09/02/2020,83,Very Walkable,41.878913,-87.683173,87,72
711 N Kedzie Ave,Chicago,IL,Chicago,60612,60000,6351.0,0.1457988981,9.447331129,sqft lot,Sold 08/04/2020,84,Very Walkable,41.894102,-87.706158,87,66
324 S California Ave,Chicago,IL,Chicago,60612,100000,3150.0,0.07231404959,31.74603175,sqft lot,Sold 07/30/2020,71,Very Walkable,41.876623,-87.69652,84,74
328 S California Ave,Chicago,IL,Chicago,60612,100000,3150.0,0.07231404959,31.74603175,sqft lot,Sold 07/30/2020,71,Very Walkable,41.876555,-87.696518,84,74
330 S California Ave,Chicago,IL,Chicago,60612,100000,3150.0,0.07231404959,31.74603175,sqft lot,Sold 07/30/2020,71,Very Walkable,41.876485,-87.696516,84,74
2924 W Monroe St,Chicago,IL,Chicago,60612,120000,1440.0,0.03305785124,83.33333333,sqft lot,Sold 04/15/2020,71,Very Walkable,41.8804,-87.699667,97,74
2139 W Gladys Ave,Chicago,IL,Chicago,60612,138500,3240.0,0.07438016529,42.74691358,sqft lot,Sold 01/28/2020,61,Somewhat Walkable,41.876626,-87.680522,88,73
418 N Troy St,Chicago,IL,Chicago,60612,160000,3175.0,0.07288797062,50.39370079,sqft lot,Sold 10/02/2020,71,Very Walkable,41.888902,-87.705477,94,69
2610 W Wilcox St,Chicago,IL,Chicago,60612,170000,13939.2,0.32,12.19582185,acres lot,Sold 08/31/2020,76,Very Walkable,41.879583,-87.691865,91,75
2937 W Jackson Blvd,Chicago,IL,Chicago,60612,183637,3125.0,0.07174012856,58.76384,sqft lot,Sold 06/08/2020,74,Very Walkable,41.877109,-87.700025,94,74
2250 W Jackson Blvd,Chicago,IL,Chicago,60612,200000,6.0,0.0001377410468,33333.33333,sqft lot,Sold 07/27/2020,81,Very Walkable,41.87772,-87.683465,87,73
2252 W Jackson Blvd,Chicago,IL,Chicago,60612,200000,2710.0,0.06221303949,73.80073801,sqft lot,Sold 07/27/2020,85,Very Walkable,41.877879,-87.683525,87,73
424 N Albany Ave,Chicago,IL,Chicago,60612,270000,3175.0,0.07288797062,85.03937008,sqft lot,Sold 11/10/2020,71,Very Walkable,41.889124,-87.704251,94,69
2506 W Washington Blvd,Chicago,IL,Chicago,60612,325000,2400.0,0.05509641873,135.4166667,sqft lot,Sold 11/23/2020,85,Very Walkable,41.883208,-87.688879,92,74
3148 W Washington Blvd,Chicago,IL,Chicago,60612,325000,14374.8,0.33,22.60901021,acres lot,Sold 11/11/2020,65,Somewhat Walkable,41.88306,-87.705825,93,72
604 S Western Ave,Chicago,IL,Chicago,60612,350000,4867.0,0.1117309458,71.91288268,sqft lot,Sold 02/18/2020,79,Very Walkable,41.873607,-87.68661,83,70
2431-2433 W Madison St,Chicago,IL,Chicago,60612,430000,5227.0,0.1199954086,82.26516166,sqft lot,Sold 11/02/2020,67,Somewhat Walkable,41.881013,-87.704745,94,74
810-12 S Oakley Ave,Chicago,IL,Chicago,60612,499000,3920.0,0.08999081726,127.2959184,sqft lot,Sold 09/03/2020,88,Very Walkable,41.880533,-87.68394,88,73
2346 W Jackson Blvd,Chicago,IL,Chicago,60612,600000,5227.0,0.1199954086,114.7885977,sqft lot,Sold 03/16/2020,84,Very Walkable,41.877836,-87.685689,85,74
2550 W Harrison St,Chicago,IL,Chicago,60612,630000,57499.2,1.32,10.95667418,acres lot,Sold 05/27/2020,77,Very Walkable,41.873389,-87.690639,75,70
2528 W Lexington St,Chicago,IL,Chicago,60612,634047,3125.0,0.07174012856,202.89504,sqft lot,Sold 12/08/2020,77,Very Walkable,41.872299,-87.68981,77,70
2012 W Superior St,Chicago,IL,Chicago,60612,750000,2500.0,0.05739210285,300.0,sqft lot,Sold 10/21/2020,97,Walker's Paradise,41.894988,-87.677631,98,65
2334 W Adams St,Chicago,IL,Chicago,60612,800000,12632.4,0.29,63.32921693,acres lot,Sold 01/22/2020,84,Very Walkable,41.878977,-87.685683,85,74
512 N Western Ave,Chicago,IL,Chicago,60612,890000,1886.0,0.04329660239,471.8981972,sqft lot,Sold 03/13/2020,85,Very Walkable,41.891075,-87.686999,92,68
516 N Western Ave,Chicago,IL,Chicago,60612,890000,6220.0,0.1427915519,143.0868167,sqft lot,Sold 03/13/2020,85,Very Walkable,41.89119,-87.687091,92,68
520 N Western Ave,Chicago,IL,Chicago,60612,890000,38332.8,0.88,23.21771433,acres lot,Sold 03/13/2020,79,Very Walkable,41.874315,-87.686609,83,70
2834 W Van Buren St,Chicago,IL,Chicago,60612,1500000,6250.0,0.1434802571,240.0,sqft lot,Sold 02/14/2020,73,Very Walkable,41.876223,-87.6976,78,73
2900 W Van Buren St,Chicago,IL,Chicago,60612,1500000,0.0,0.0,,sqft lot,Sold 02/14/2020,74,Very Walkable,41.87621,-87.698826,78,74
2906-08 W Van Buren St,Chicago,IL,Chicago,60612,1500000,3125.0,0.07174012856,480.0,sqft lot,Sold 02/14/2020,74,Very Walkable,41.876209,-87.698957,78,74
2908 W Van Buren St,Chicago,IL,Chicago,60612,1500000,3125.0,0.07174012856,480.0,sqft lot,Sold 02/14/2020,74,Very Walkable,41.876207,-87.699051,78,74
2916 W Van Buren St,Chicago,IL,Chicago,60612,1500000,3125.0,0.07174012856,480.0,sqft lot,Sold 02/14/2020,74,Very Walkable,41.876204,-87.699326,78,74
2922 W Van Buren St,Chicago,IL,Chicago,60612,1500000,3125.0,0.07174012856,480.0,sqft lot,Sold 02/14/2020,74,Very Walkable,41.876203,-87.699418,78,74
314 S California Ave,Chicago,IL,Chicago,60612,1500000,3140.0,0.07208448118,477.7070064,sqft lot,Sold 02/14/2020,71,Very Walkable,41.876898,-87.696526,84,74
316 S California Ave,Chicago,IL,Chicago,60612,1500000,3146.0,0.07222222222,476.7959313,sqft lot,Sold 02/14/2020,71,Very Walkable,41.876829,-87.696525,84,74
2838 W Van Buren St,Chicago,IL,Chicago,60612,1500000,3125.0,0.07174012856,480.0,sqft lot,Sold 02/14/2020,73,Very Walkable,41.876221,-87.697739,78,73
2844 W Van Buren St,Chicago,IL,Chicago,60612,1500000,3125.0,0.07174012856,480.0,sqft lot,Sold 02/14/2020,73,Very Walkable,41.876219,-87.697923,78,73
2846 W Van Buren St,Chicago,IL,Chicago,60612,1500000,3125.0,0.07174012856,480.0,sqft lot,Sold 02/14/2020,73,Very Walkable,41.876218,-87.698015,78,73
2848 W Van Buren St,Chicago,IL,Chicago,60612,1500000,3125.0,0.07174012856,480.0,sqft lot,Sold 02/14/2020,73,Very Walkable,41.876217,-87.698107,78,73
3660 N Lake Shore Dr #P-244,Chicago,IL,Chicago,60613,12500,37461.6,0.86,0.3336750166,acres lot,Sold 06/11/2020,91,Walker's Paradise,41.948032,-87.642826,87,75
655 W Irving Park Rd #B147,Chicago,IL,Chicago,60613,21500,118483.2,2.72,0.1814603252,acres lot,Sold 11/05/2020,91,Walker's Paradise,41.954463,-87.646894,90,75
1832 W Patterson Ave,Chicago,IL,Chicago,60613,521000,3049.0,0.06999540863,170.8756969,sqft lot,Sold 09/15/2020,94,Walker's Paradise,41.948079,-87.675634,89,66
3828 N Racine Ave UNIT 1,Chicago,IL,Chicago,60613,545000,2191.0,0.05029843893,248.7448654,sqft lot,Sold 06/26/2020,91,Walker's Paradise,41.951933,-87.659534,88,75
4308 N Greenview Ave,Chicago,IL,Chicago,60613,550000,8001.0,0.183677686,68.74140732,sqft lot,Sold 02/24/2020,86,Very Walkable,41.960144,-87.668116,96,73
1143 W Addison St,Chicago,IL,Chicago,60613,675000,3049.0,0.06999540863,221.3840603,sqft lot,Sold 06/02/2020,89,Very Walkable,41.946878,-87.658721,88,78
4118 N Greenview Ave,Chicago,IL,Chicago,60613,860000,0.0,0.0,,sqft lot,Sold 11/16/2020,84,Very Walkable,41.956744,-87.668013,95,72
3852 N Janssen Ave #1,Chicago,IL,Chicago,60613,900000,3510.0,0.0805785124,256.4102564,sqft lot,Sold 02/24/2020,92,Walker's Paradise,41.952208,-87.666129,86,72
3419-21 N Paulina St,Chicago,IL,Chicago,60613,1000000,0.0,0.0,,sqft lot,Sold 10/23/2020,96,Walker's Paradise,41.949467,-87.671346,85,66
1701 W Terra Cotta Pl,Chicago,IL,Chicago,60614,350000,14810.4,0.34,23.63204235,acres lot,Sold 07/06/2020,91,Walker's Paradise,41.92776,-87.671578,92,60
1945 N Sheffield Ave APT 201,Chicago,IL,Chicago,60614,365000,0.0,0.0,,sqft lot,Sold 07/27/2020,96,Walker's Paradise,41.917274,-87.652987,89,75
2725 N Wayne Ave UNIT 1,Chicago,IL,Chicago,60614,550000,3100.0,0.07116620753,177.4193548,sqft lot,Sold 06/02/2020,82,Very Walkable,41.931457,-87.661965,88,71
2649-51 N Mildred Ave,Chicago,IL,Chicago,60614,717500,3100.0,0.07116620753,231.4516129,sqft lot,Sold 10/13/2020,96,Walker's Paradise,41.930472,-87.650982,86,76
1730 W Wrightwood Ave,Chicago,IL,Chicago,60614,790000,92347.2,2.12,8.554671934,acres lot,Sold 05/20/2020,89,Very Walkable,41.929542,-87.671712,92,60
1231 W Draper St,Chicago,IL,Chicago,60614,827500,1306.0,0.02998163453,633.6140888,sqft lot,Sold 10/27/2020,86,Very Walkable,41.92808,-87.659817,84,71
1930 N Kenmore Ave,Chicago,IL,Chicago,60614,899000,0.0,0.0,,sqft lot,Sold 10/06/2020,95,Walker's Paradise,41.917492,-87.654675,88,74
928 W Montana St UNIT 2,Chicago,IL,Chicago,60614,1050000,2805.0,0.06439393939,374.3315508,sqft lot,Sold 04/24/2020,96,Walker's Paradise,41.926621,-87.651543,88,77
2617 N Seminary Ave #3S,Chicago,IL,Chicago,60614,1180000,3049.0,0.06999540863,387.0121351,sqft lot,Sold 10/13/2020,93,Walker's Paradise,41.929555,-87.655803,83,75
1825 N Halsted St,Chicago,IL,Chicago,60614,1190000,4321.0,0.09919651056,275.3992131,sqft lot,Sold 10/30/2020,93,Walker's Paradise,41.91461,-87.648094,88,78
2214 N Fremont St,Chicago,IL,Chicago,60614,1200000,2613.0,0.0599862259,459.2422503,sqft lot,Sold 12/11/2020,97,Walker's Paradise,41.922253,-87.651361,89,75
2641 N Mildred Ave UNIT 2,Chicago,IL,Chicago,60614,1250000,3100.0,0.07116620753,403.2258065,sqft lot,Sold 07/13/2020,96,Walker's Paradise,41.930262,-87.650998,86,76
1920 N Kenmore Ave,Chicago,IL,Chicago,60614,1600000,2178.0,0.05,734.6189164,sqft lot,Sold 10/19/2020,95,Walker's Paradise,41.916619,-87.654757,87,75
1922 N Kenmore Ave,Chicago,IL,Chicago,60614,1600000,2178.0,0.05,734.6189164,sqft lot,Sold 12/07/2020,95,Walker's Paradise,41.916709,-87.654647,87,75
1752 N Cleveland Ave,Chicago,IL,Chicago,60614,2000000,2898.0,0.06652892562,690.1311249,sqft lot,Sold 07/01/2020,88,Very Walkable,41.914409,-87.641473,88,79
2021 N Clifton Ave,Chicago,IL,Chicago,60614,2500000,6098.0,0.1399908173,409.9704821,sqft lot,Sold 09/30/2020,94,Walker's Paradise,41.918683,-87.656685,86,72
2365 N Lincoln Ave,Chicago,IL,Chicago,60614,2500000,0.0,0.0,,sqft lot,Sold 12/10/2020,96,Walker's Paradise,41.925282,-87.648135,90,77
71 W Schubert Ave,Chicago,IL,Chicago,60614,2630000,152.0,0.003489439853,17302.63158,sqft lot,Sold 11/05/2020,99,Walker's Paradise,41.9314,-87.645848,89,77
1731 N Mohawk St,Chicago,IL,Chicago,60614,2900000,2879.0,0.06609274564,1007.294199,sqft lot,Sold 07/31/2020,88,Very Walkable,41.913755,-87.641966,88,79
516 W Arlington Pl,Chicago,IL,Chicago,60614,2900000,5000.0,0.1147842057,580.0,sqft lot,Sold 01/15/2020,96,Walker's Paradise,41.927097,-87.642196,92,76
1947 N Halsted St,Chicago,IL,Chicago,60614,37900000,3930.0,0.09022038567,9643.765903,sqft lot,Sold 02/18/2020,95,Walker's Paradise,41.917327,-87.64812,90,76
4923 S Champlain Ave,Chicago,IL,Chicago,60615,25000,1742.0,0.03999081726,14.35132032,sqft lot,Sold 11/10/2020,73,Very Walkable,41.805095,-87.609757,81,66
5231 S Wabash Ave,Chicago,IL,Chicago,60615,38000,4277.0,0.09818640955,8.884732289,sqft lot,Sold 12/10/2020,70,Somewhat Walkable,41.799115,-87.623711,68,73
4731 S Wabash Ave,Chicago,IL,Chicago,60615,50000,7840.0,0.1799816345,6.37755102,sqft lot,Sold 05/12/2020,82,Very Walkable,41.808643,-87.62425,63,72
4745 S Indiana Ave,Chicago,IL,Chicago,60615,71000,4024.0,0.09237832874,17.64413519,sqft lot,Sold 08/05/2020,85,Very Walkable,41.808033,-87.620701,67,72
4923 S Michigan Ave,Chicago,IL,Chicago,60615,79000,5227.0,0.1199954086,15.11383203,sqft lot,Sold 09/22/2020,80,Very Walkable,41.804925,-87.622247,64,72
5227 S Michigan Ave,Chicago,IL,Chicago,60615,85000,10454.0,0.2399908173,8.130859001,sqft lot,Sold 06/15/2020,74,Very Walkable,41.79927,-87.622072,72,73
439 E 48th Pl,Chicago,IL,Chicago,60615,112500,2178.0,0.05,51.65289256,sqft lot,Sold 07/29/2020,82,Very Walkable,41.806526,-87.615781,75,69
439 E 48th St,Chicago,IL,Chicago,60615,112500,2500.0,0.05739210285,45.0,sqft lot,Sold 10/13/2020,83,Very Walkable,41.807331,-87.614742,74,65
441 E 48th St,Chicago,IL,Chicago,60615,112500,2500.0,0.05739210285,45.0,sqft lot,Sold 10/13/2020,29,Car-Dependent,41.806888,-87.637548,46,68
4943 S Saint Lawrence Ave,Chicago,IL,Chicago,60615,188000,3049.0,0.06999540863,61.65956051,sqft lot,Sold 07/28/2020,73,Very Walkable,41.804539,-87.610987,81,66
4730 S Champlain Ave,Chicago,IL,Chicago,60615,359000,3920.0,0.08999081726,91.58163265,sqft lot,Sold 10/20/2020,77,Very Walkable,41.808508,-87.610531,76,64
5317 S Maryland Ave,Chicago,IL,Chicago,60615,456000,3000.0,0.06887052342,152.0,sqft lot,Sold 11/03/2020,80,Very Walkable,41.79838,-87.604938,88,65
5028 S Michigan Ave,Chicago,IL,Chicago,60615,485000,0.0,0.0,,sqft lot,Sold 04/27/2020,79,Very Walkable,41.802983,-87.623132,65,72
4955 S Vincennes Ave,Chicago,IL,Chicago,60615,565000,3350.0,0.07690541781,168.6567164,sqft lot,Sold 11/02/2020,77,Very Walkable,41.804158,-87.613509,83,67
4959 S Saint Lawrence Ave,Chicago,IL,Chicago,60615,650000,0.0,0.0,,sqft lot,Sold 02/18/2020,73,Very Walkable,41.80474,-87.611354,81,66
4950 S Champlain Ave,Chicago,IL,Chicago,60615,682500,0.0,0.0,,sqft lot,Sold 10/15/2020,73,Very Walkable,41.804304,-87.610439,81,66
4953 S Saint Lawrence Ave,Chicago,IL,Chicago,60615,720137,0.0,0.0,,sqft lot,Sold 10/09/2020,73,Very Walkable,41.80485,-87.611355,81,66
4957 S Saint Lawrence Ave,Chicago,IL,Chicago,60615,738500,0.0,0.0,,sqft lot,Sold 07/30/2020,73,Very Walkable,41.804777,-87.611354,81,66
3411 S Prairie Ave,Chicago,IL,Chicago,60616,37500,2613.0,0.0599862259,14.35132032,sqft lot,Sold 11/09/2020,79,Very Walkable,41.8325,-87.620231,77,72
3134 S Giles Ave,Chicago,IL,Chicago,60616,75000,1999.0,0.04589072544,37.51875938,sqft lot,Sold 10/09/2020,67,Somewhat Walkable,41.837339,-87.619762,83,70
2612 S Princeton Ave,Chicago,IL,Chicago,60616,191000,2613.0,0.0599862259,73.09605817,sqft lot,Sold 05/15/2020,90,Walker's Paradise,41.845026,-87.634622,87,71
3008 S Wells St,Chicago,IL,Chicago,60616,215000,3093.0,0.07100550964,69.51180084,sqft lot,Sold 07/28/2020,82,Very Walkable,41.839373,-87.633266,90,70
3350 S Union Ave,Chicago,IL,Chicago,60616,240000,3049.0,0.06999540863,78.71433257,sqft lot,Sold 03/17/2020,85,Very Walkable,41.832921,-87.644068,86,60
1946 S Desplaines St,Chicago,IL,Chicago,60616,250000,2613.0,0.0599862259,95.67546881,sqft lot,Sold 09/30/2020,91,Walker's Paradise,41.85544,-87.643035,97,66
2000 S Desplaines St,Chicago,IL,Chicago,60616,250000,2613.0,0.0599862259,95.67546881,sqft lot,Sold 09/30/2020,91,Walker's Paradise,41.855276,-87.643029,97,66
3361 S Prairie Ave,Chicago,IL,Chicago,60616,260000,2952.0,0.06776859504,88.07588076,sqft lot,Sold 10/22/2020,78,Very Walkable,41.832957,-87.620237,82,72
3363 S Prairie Ave,Chicago,IL,Chicago,60616,260000,2952.0,0.06776859504,88.07588076,sqft lot,Sold 10/22/2020,78,Very Walkable,41.832891,-87.620235,82,72
3305 S Prairie Ave,Chicago,IL,Chicago,60616,556500,8031.0,0.1843663912,69.29398581,sqft lot,Sold 11/10/2020,76,Very Walkable,41.834552,-87.62027,84,73
654 W 31st St #658,Chicago,IL,Chicago,60616,650000,7379.0,0.1693985308,88.08781678,sqft lot,Sold 02/19/2020,92,Walker's Paradise,41.838338,-87.643576,96,59
658 W 31st St,Chicago,IL,Chicago,60616,650000,3075.0,0.0705922865,211.3821138,sqft lot,Sold 02/26/2020,92,Walker's Paradise,41.838337,-87.643686,96,59
1937 S Canalport Ave,Chicago,IL,Chicago,60616,1760000,1672.0,0.03838383838,1052.631579,sqft lot,Sold 05/11/2020,91,Walker's Paradise,41.856072,-87.64292,97,66
8017 S Marquette Ave #1,Chicago,IL,Chicago,60617,5000,4166.0,0.09563820018,1.200192031,sqft lot,Sold 09/09/2020,68,Somewhat Walkable,41.749467,-87.558567,54,64
8418 S Green Bay Ave,Chicago,IL,Chicago,60617,10000,3100.0,0.07116620753,3.225806452,sqft lot,Sold 11/24/2020,34,Car-Dependent,41.742357,-87.542144,60,56
11624 S Torrence Ave,Chicago,IL,Chicago,60617,12000,3049.0,0.06999540863,3.935716628,sqft lot,Sold 11/17/2020,1,Car-Dependent,41.68383,-87.559712,28,30
10001 S Hoxie Ave,Chicago,IL,Chicago,60617,23000,834.0,0.01914600551,27.57793765,sqft lot,Sold 02/14/2020,47,Car-Dependent,41.713432,-87.560618,45,50
10003 S Hoxie Ave,Chicago,IL,Chicago,60617,23000,2832.0,0.0650137741,8.121468927,sqft lot,Sold 02/14/2020,47,Car-Dependent,41.713389,-87.560617,45,50
2886 E 94th St,Chicago,IL,Chicago,60617,25000,3123.0,0.07169421488,8.005123279,sqft lot,Sold 08/28/2020,75,Very Walkable,41.724861,-87.553424,59,60
2888 E 94th St,Chicago,IL,Chicago,60617,25000,3123.0,0.07169421488,8.005123279,sqft lot,Sold 08/28/2020,75,Very Walkable,41.724862,-87.553333,59,60
2890 E 94th St,Chicago,IL,Chicago,60617,25000,3123.0,0.07169421488,8.005123279,sqft lot,Sold 08/28/2020,75,Very Walkable,41.724863,-87.553242,59,60
2894 E 94th St,Chicago,IL,Chicago,60617,25000,3123.0,0.07169421488,8.005123279,sqft lot,Sold 08/28/2020,75,Very Walkable,41.724864,-87.553151,59,60
2896 E 94th St,Chicago,IL,Chicago,60617,25000,3123.0,0.07169421488,8.005123279,sqft lot,Sold 08/28/2020,75,Very Walkable,41.724853,-87.553061,59,60
2900 E 94th St,Chicago,IL,Chicago,60617,25000,3123.0,0.07169421488,8.005123279,sqft lot,Sold 08/28/2020,75,Very Walkable,41.724787,-87.552874,59,60
11751 S Burley Ave,Chicago,IL,Chicago,60617,40000,3000.0,0.06887052342,13.33333333,sqft lot,Sold 08/17/2020,31,Car-Dependent,41.681204,-87.544766,37,33
11753 S Burley Ave,Chicago,IL,Chicago,60617,40000,3000.0,0.06887052342,13.33333333,sqft lot,Sold 08/17/2020,31,Car-Dependent,41.681135,-87.544764,37,33
11755 S Burley Ave,Chicago,IL,Chicago,60617,40000,3000.0,0.06887052342,13.33333333,sqft lot,Sold 08/17/2020,31,Car-Dependent,41.681068,-87.544764,37,33
11757 S Burley Ave,Chicago,IL,Chicago,60617,40000,2640.0,0.06060606061,15.15151515,sqft lot,Sold 08/17/2020,31,Car-Dependent,41.681003,-87.544766,37,33
8224 S Exchange Ave,Chicago,IL,Chicago,60617,42000,3025.0,0.06944444444,13.88429752,sqft lot,Sold 02/28/2020,58,Somewhat Walkable,41.745646,-87.553146,62,65
9237 S Chappel Ave,Chicago,IL,Chicago,60617,65000,4687.0,0.1075987144,13.86814594,sqft lot,Sold 09/30/2020,62,Somewhat Walkable,41.726824,-87.573897,62,56
8343 S Constance Ave,Chicago,IL,Chicago,60617,85000,3150.0,0.07231404959,26.98412698,sqft lot,Sold 12/09/2020,68,Somewhat Walkable,41.742998,-87.579115,79,60
10260 S Indianapolis Ave,Chicago,IL,Chicago,60617,210000,3125.0,0.07174012856,67.2,sqft lot,Sold 06/18/2020,62,Somewhat Walkable,41.708564,-87.531312,88,37
3853 E 110th St,Chicago,IL,Chicago,60617,265000,3782.0,0.08682277319,70.06874669,sqft lot,Sold 02/07/2020,42,Car-Dependent,41.695186,-87.529786,64,36
3310 N Harding Ave,Chicago,IL,Chicago,60618,205000,3484.0,0.07998163453,58.84041332,sqft lot,Sold 11/05/2020,93,Walker's Paradise,41.941285,-87.726371,68,66
3130 N Spaulding Ave,Chicago,IL,Chicago,60618,225000,3075.0,0.0705922865,73.17073171,sqft lot,Sold 11/09/2020,91,Walker's Paradise,41.93843,-87.710377,86,69
4120 N Bernard St,Chicago,IL,Chicago,60618,232500,3049.0,0.06999540863,76.25450968,sqft lot,Sold 09/12/2020,89,Very Walkable,41.956332,-87.714561,73,63
3139 N Central Park Ave,Chicago,IL,Chicago,60618,250000,2613.0,0.0599862259,95.67546881,sqft lot,Sold 10/20/2020,93,Walker's Paradise,41.938554,-87.717021,80,70
3236 N Whipple St,Chicago,IL,Chicago,60618,270000,3049.0,0.06999540863,88.55362414,sqft lot,Sold 12/23/2020,90,Walker's Paradise,41.940457,-87.704333,82,65
2827 W Fletcher St,Chicago,IL,Chicago,60618,285000,3920.0,0.08999081726,72.70408163,sqft lot,Sold 11/19/2020,89,Very Walkable,41.93821,-87.698892,88,63
2420 W Berteau Ave,Chicago,IL,Chicago,60618,425000,3049.0,0.06999540863,139.3899639,sqft lot,Sold 03/10/2020,86,Very Walkable,41.957922,-87.689454,74,61
3140-44 N Elston Ave,Chicago,IL,Chicago,60618,444000,3100.0,0.07116620753,143.2258065,sqft lot,Sold 03/06/2020,89,Very Walkable,41.937985,-87.696777,87,61
3614 N Damen Ave UNIT 3,Chicago,IL,Chicago,60618,485000,3100.0,0.07116620753,156.4516129,sqft lot,Sold 11/11/2020,90,Walker's Paradise,41.94739,-87.678918,89,65
2228 W Belmont Ave,Chicago,IL,Chicago,60618,505000,3123.0,0.07169421488,161.7034902,sqft lot,Sold 08/11/2020,88,Very Walkable,41.939754,-87.684386,85,59
3124 N Central Park Ave,Chicago,IL,Chicago,60618,505000,2613.0,0.0599862259,193.264447,sqft lot,Sold 04/08/2020,93,Walker's Paradise,41.938162,-87.717707,80,70
3039 N Damen Ave,Chicago,IL,Chicago,60618,540000,3125.0,0.07174012856,172.8,sqft lot,Sold 06/29/2020,88,Very Walkable,41.937126,-87.677918,86,63
3016-20 W Belmont Ave,Chicago,IL,Chicago,60618,545000,3000.0,0.06887052342,181.6666667,sqft lot,Sold 05/26/2020,90,Walker's Paradise,41.939617,-87.703426,86,65
3018 W Belmont Ave,Chicago,IL,Chicago,60618,545000,3000.0,0.06887052342,181.6666667,sqft lot,Sold 05/26/2020,90,Walker's Paradise,41.939622,-87.703521,86,65
3020 W Belmont Ave,Chicago,IL,Chicago,60618,545000,3000.0,0.06887052342,181.6666667,sqft lot,Sold 05/26/2020,90,Walker's Paradise,41.939622,-87.703609,86,65
3323 N Oakley Ave,Chicago,IL,Chicago,60618,560000,3049.0,0.06999540863,183.666776,sqft lot,Sold 02/06/2020,89,Very Walkable,41.942053,-87.685348,86,61
